"","curs","Any","codi_centre","nom_complet","codi_naturalesa","nom_naturalesa","codi_titularitat","nom_titularitat","codi_delegacio","nom_delegacio","codi_comarca","nom_comarca","codi_municipi","codi_municipi_6","nom_municipi","codi_districte_minicial","nom_dm","UTM_X","UTM_Y","nom_ensenyament","nivell","nom_grups","mixt","nombre_places","places_ofertades","assignacions","assig_1a","assig_altres","georeferencia","edat","num_dona","num_home","num_total","lng","lat","% ocupades","% infants del municipi"
"1","2020/2021","2020","8002368","Escola Timbaler del Bruc","1","Public","1","Departament d'Ensenyament","108","Consorci d'Educacio de Barcelona","13","Barcelones","08019","80193","Barcelona","8","Nou Barris","431271.309","4586644.759","Educacio infantil 2n cicle","1","1","FALSE",25,25,23,25,2,"(41.4284271, 2.177443331)",3,6441,6803,13244,"2.177443331","41.428427099",92,100
"2","2020/2021","2020","8018406","Canigo","2","Privat","21","Cooperatives","208","Barcelona Comarques","13","Barcelones","08101","81017","L'Hospitalet de Llobregat","1","Centre - Sant Josep - Santfeliu","424961.55","4580808.047","Educacio infantil 2n cicle","1","1","FALSE",25,25,20,20,0,"(41.37529409, 2.102659082)",3,1247,128,1375,"2.101765922","41.362136551",80,100
"3","2020/2021","2020","8023323","El Pilar","2","Privat","26","Societats Mercantils","508","Maresme-Valles Oriental","21","Maresme","08172","81727","Premia de Mar","0","0","429987.79","4594597.949","Educacio infantil 2n cicle","1","1","FALSE",25,25,20,20,0,"(41.499947, 2.161160801)",3,136,144,280,"2.355990768","41.493610782",80,100
"4","2020/2021","2020","8019502","Escola Pia d'Igualada","2","Privat","24","Ordes i Congregacions Catolics","1060","Catalunya Central","6","Anoia","08102","81022","Igualada","0","0","384566.259","4603898.189","Educacio infantil 2n cicle","1","2","FALSE",46,46,44,45,1,"(41.57843782, 1.615287515)",3,189,189,378,"1.610369155","41.580438034",95.7,100
"5","2020/2021","2020","8026491","La Immaculada","2","Privat","22","Fundacions","508","Maresme-Valles Oriental","21","Maresme","08214","82140","Vilassar de Dalt","0","0","421564.665","4579816.281","Educacio infantil 2n cicle","1","1","FALSE",25,25,24,24,0,"(41.36603789, 2.062171128)",3,30,41,71,"2.358236338","41.516412155",96,100
"6","2020/2021","2020","8024340","Salesians Sabadell","2","Privat","24","Ordes i Congregacions Catolics","408","Valles Occidental","40","Valles Occident","08187","81878","Sabadell","1","Sabadell 1","426533.167","4597859.242","Educacio infantil 2n cicle","1","2","FALSE",46,46,34,37,3,"(41.5290101, 2.119376373)",3,1004,116,1120,"2.118234671","41.539892027",73.9,100
"7","2020/2021","2020","8021934","Escola L'Esqueix - ZER El Moianes Ponent","1","Public","1","Departament d'Ensenyament","1060","Catalunya Central","42","Moianes","08128","81287","Monistrol de Calders","0","0","437016.499","4600401.045","Educacio infantil 2n cicle","1","0","FALSE",6,6,5,5,0,"(41.55279668, 2.244759067)",3,2,3,5,"2.01650437","41.76029904",83.3,100
"8","2020/2021","2020","8019733","Gilpe","2","Privat","41","Persones Fisiques","508","Maresme-Valles Oriental","41","Valles Oriental","08105","81056","La Llagosta","0","0","478279.559","4610219.013","Educacio infantil 2n cicle","1","1","FALSE",25,25,17,19,2,"(41.64341436, 2.739182808)",3,50,71,121,"2.194507189","41.512420057",68,100
"9","2020/2021","2020","8017645","Escola de Gironella","1","Public","1","Departament d'Ensenyament","1060","Catalunya Central","14","Bergueda","08092","80924","Gironella","0","0","440301.157","4605989.88","Educacio infantil 2n cicle","1","1","FALSE",25,25,23,23,0,"(41.60338516, 2.28358657)",3,23,27,50,"1.879963171","42.035914942",92,100
"10","2020/2021","2020","8021880","Escola Salvador Espriu","1","Public","1","Departament d'Ensenyament","508","Maresme-Valles Oriental","21","Maresme","08126","81265","Montgat","0","0","434575.913","4662418.491","Educacio infantil 2n cicle","1","1","FALSE",25,25,19,19,0,"(42.11049, 2.209238)",3,67,66,133,"2.280358671","41.468181944",76,100
"11","2020/2021","2020","8019058","Tecla Sala","2","Privat","22","Fundacions","208","Barcelona Comarques","13","Barcelones","08101","81017","L'Hospitalet de Llobregat","1","Centre - Sant Josep - Santfeliu","427187.641","4579566.543","Educacio infantil 2n cicle","1","3","FALSE",75,75,67,70,3,"(41.36431683, 2.12942569)",3,1247,128,1375,"2.098398436","41.360647493",89.3,100
"12","2020/2021","2020","8011096","Piaget","2","Privat","21","Cooperatives","108","Consorci d'Educacio de Barcelona","13","Barcelones","08019","80193","Barcelona","7","Horta - Guinardo","432669.843","4585033.549","Educacio infantil 2n cicle","1","1","FALSE",25,25,23,24,1,"(41.41403388, 2.194358996)",3,6441,6803,13244,"2.152467501","41.422382206",92,100
"13","2020/2021","2020","8024042","Escola La Romanica","1","Public","1","Departament d'Ensenyament","408","Valles Occidental","40","Valles Occident","08187","81878","Sabadell","6","Sabadell 6","425139.69","4600071.289","Educacio infantil 2n cicle","1","2","FALSE",50,50,25,28,3,"(41.54880332, 2.102399716)",3,1004,116,1120,"2.125025168","41.527485174",50,100
"14","2020/2021","2020","8001868","Escola Ruben Dario","1","Public","1","Departament d'Ensenyament","108","Consorci d'Educacio de Barcelona","13","Barcelones","08019","80193","Barcelona","1","Ciutat vella","430238.03","4580934.455","Educacio infantil 2n cicle","1","1","FALSE",25,25,25,25,0,"(41.37690732, 2.165736209)",3,6441,6803,13244,"2.165736209","41.376907317",100,100
"15","2020/2021","2020","8005746","Escola Pia Sant Antoni","2","Privat","24","Ordes i Congregacions Catolics","108","Consorci d'Educacio de Barcelona","13","Barcelones","08019","80193","Barcelona","1","Ciutat vella","428917.154","4582632.275","Educacio infantil 2n cicle","1","4","FALSE",100,100,45,49,4,"(41.39208338, 2.149742687)",3,6441,6803,13244,"2.164339721","41.377971718",45,100
"16","2020/2021","2020","8026543","Mare de Deu de la Gleva","2","Privat","22","Fundacions","1060","Catalunya Central","24","Osona","08117","81173","Les Masies de Voltrega","0","0","400428.5","4621589.262","Educacio infantil 2n cicle","1","1","FALSE",25,25,17,17,0,"(41.73988413, 1.802575807)",3,11,12,23,"2.240465155","42.003513329",68,100
"17","2020/2021","2020","8024339","Vedruna El Carme Sabadell","2","Privat","22","Fundacions","408","Valles Occidental","40","Valles Occident","08187","81878","Sabadell","1","Sabadell 1","425495.071","4600359.472","Educacio infantil 2n cicle","1","2","FALSE",50,50,41,46,5,"(41.55143195, 2.106624615)",3,1004,116,1120,"2.10557877","41.550428469",82,100
"18","2020/2021","2020","8027146","Escola Sant Jeroni","1","Public","1","Departament d'Ensenyament","208","Barcelona Comarques","3","Alt Penedes","08232","82325","Sant Pere de Riudebitlles","0","0","433949.939","4588502.571","Educacio infantil 2n cicle","1","1","FALSE",25,25,22,22,0,"(41.44538456, 2.209295577)",3,12,7,19,"1.699899585","41.450057679",88,86.4
"19","2020/2021","2020","8019861","Escola Gafarro - ZER Alt Llucanes","1","Public","1","Departament d'Ensenyament","1060","Catalunya Central","24","Osona","08109","81094","Lluca","0","0","478620.55","4611286.855","Educacio infantil 2n cicle","1","0","FALSE",5,5,1,1,0,"(41.65304176, 2.743239168)",3,1,3,4,"2.073294148","42.068181384",20,100
"20","2020/2021","2020","8002988","Escola Pare Poveda","1","Public","1","Departament d'Ensenyament","108","Consorci d'Educacio de Barcelona","13","Barcelones","08019","80193","Barcelona","6","Gracia","428251.995","4585416.042","Educacio infantil 2n cicle","1","2","FALSE",50,50,23,33,10,"(41.41709657, 2.141457263)",3,6441,6803,13244,"2.141457263","41.417096567",46,100
"21","2020/2021","2020","8020759","Sagrada Familia","2","Privat","24","Ordes i Congregacions Catolics","508","Maresme-Valles Oriental","21","Maresme","08118","81189","El Masnou","0","0","418873.08","4605361.847","Educacio infantil 2n cicle","1","1","FALSE",25,25,2,2,0,"(41.59583927, 2.026555845)",3,118,103,221,"2.312804803","41.477700146",8,100
"22","2020/2021","2020","8004067","Jesuites Sarria - Sant Ignasi","2","Privat","22","Fundacions","108","Consorci d'Educacio de Barcelona","13","Barcelones","08019","80193","Barcelona","5","Sarria - Sant Gervasi","426567.58","4583860.201","Educacio infantil 2n cicle","1","5","FALSE",125,125,120,120,0,"(41.40293167, 2.121492469)",3,6441,6803,13244,"2.121492469","41.402931667",96,100
"23","2020/2021","2020","8018391","Sant Gervasi","2","Privat","26","Societats Mercantils","208","Barcelona Comarques","13","Barcelones","08101","81017","L'Hospitalet de Llobregat","4","La Florida","426893.043","4580277.172","Educacio infantil 2n cicle","1","1","FALSE",25,25,25,25,0,"(41.37069049, 2.125818077)",3,1247,128,1375,"2.111591117","41.370930434",100,100
"24","2020/2021","2020","8003294","Sant Felip Neri","2","Privat","22","Fundacions","108","Consorci d'Educacio de Barcelona","13","Barcelones","08019","80193","Barcelona","1","Ciutat vella","431017.25","4581634.425","Educacio infantil 2n cicle","1","1","FALSE",25,25,19,20,1,"(41.38327891, 2.174974078)",3,6441,6803,13244,"2.174974078","41.38327891",76,100
"25","2020/2021","2020","8017694","Escola Pereanton","1","Public","1","Departament d'Ensenyament","508","Maresme-Valles Oriental","41","Valles Oriental","08096","80961","Granollers","0","0","440382.377","4606803.73","Educacio infantil 2n cicle","1","1","FALSE",22,22,22,22,0,"(41.61072123, 2.284480191)",3,297,317,614,"2.288204022","41.609061962",100,100
"26","2020/2021","2020","8002071","Escola Gayarre","1","Public","1","Departament d'Ensenyament","108","Consorci d'Educacio de Barcelona","13","Barcelones","08019","80193","Barcelona","3","Sants - Montjuic","428107.908","4580557.632","Educacio infantil 2n cicle","1","1","FALSE",25,25,23,25,2,"(41.37332592, 2.140310077)",3,6441,6803,13244,"2.140310077","41.373325921",92,100
"27","2020/2021","2020","8007603","Arrels","2","Privat","26","Societats Mercantils","108","Consorci d'Educacio de Barcelona","13","Barcelones","08019","80193","Barcelona","9","Sant Andreu","431785.96","4586955.173","Educacio infantil 2n cicle","1","2","FALSE",50,50,31,39,8,"(41.43126676, 2.183567131)",3,6441,6803,13244,"2.1815687","41.426226285",62,100
"28","2020/2021","2020","8025344","Escola Amat Verdu","1","Public","1","Departament d'Ensenyament","308","Baix Llobregat","11","Baix Llobregat","08200","82009","Sant Boi de Llobregat","0","0","419293.193","4578680.569","Educacio infantil 2n cicle","1","1","FALSE",25,25,20,25,5,"(41.3555847, 2.035166533)",3,400,369,769,"2.034043037","41.342568308",80,100
"29","2020/2021","2020","8020498","Escola Els Convents","1","Public","1","Departament d'Ensenyament","308","Baix Llobregat","11","Baix Llobregat","08114","81141","Martorell","0","0","409950.575","4591965.488","Educacio infantil 2n cicle","1","1","FALSE",22,22,21,22,1,"(41.47423811, 1.921517967)",3,130,160,290,"1.932570466","41.473528697",95.5,100
"30","2020/2021","2020","8015272","Yglesias","2","Privat","21","Cooperatives","508","Maresme-Valles Oriental","21","Maresme","08040","80403","Canet de Mar","0","0","439925.721","4608683.623","Educacio infantil 2n cicle","1","1","FALSE",25,25,18,19,1,"(41.62761835, 2.278811282)",3,52,65,117,"2.582141911","41.589927573",72,100
"31","2020/2021","2020","8015855","Escola Els Pins","1","Public","1","Departament d'Ensenyament","308","Baix Llobregat","11","Baix Llobregat","08056","80569","Castelldefels","0","0","415328.866","4569462.337","Educacio infantil 2n cicle","1","2","FALSE",50,50,46,52,6,"(41.27215512, 1.989064332)",3,304,318,622,"1.987357864","41.290083657",92,100
"32","2020/2021","2020","8006970","Sant Josep","2","Privat","24","Ordes i Congregacions Catolics","108","Consorci d'Educacio de Barcelona","13","Barcelones","08019","80193","Barcelona","6","Gracia","430253.145","4584134.967","Educacio infantil 2n cicle","1","1","FALSE",25,25,17,17,0,"(41.40573458, 2.165548395)",3,6441,6803,13244,"2.155347593","41.402334378",68,100
"33","2020/2021","2020","8018871","Joan XXIII","2","Privat","22","Fundacions","208","Barcelona Comarques","13","Barcelones","08101","81017","L'Hospitalet de Llobregat","6","Bellvitge - Poligon Gornal","425727.25","4578509.635","Educacio infantil 2n cicle","1","2","FALSE",50,50,50,50,0,"(41.35466428, 2.112096057)",3,1247,128,1375,"2.107290875","41.349862343",100,100
"34","2020/2021","2020","8015107","Escola Anton Busquets i Punset - ZER El Moianes Ponent","1","Public","1","Departament d'Ensenyament","1060","Catalunya Central","42","Moianes","08034","80348","Calders","0","0","471398.402","4606759.735","Educacio infantil 2n cicle","1","1","FALSE",20,20,10,10,0,"(41.61203914, 2.656721043)",3,3,5,8,"1.994785185","41.791514589",50,80
"35","2020/2021","2020","8015302","Escola Misericordia","1","Public","1","Departament d'Ensenyament","508","Maresme-Valles Oriental","21","Maresme","08040","80403","Canet de Mar","0","0","392743.848","4571103.55","Educacio infantil 2n cicle","1","1","FALSE",25,24,16,20,4,"(41.28425186, 1.719178068)",3,52,65,117,"2.582771767","41.597195794",64,100
"36","2020/2021","2020","8004201","Santa Teresa - Ganduxer","2","Privat","22","Fundacions","108","Consorci d'Educacio de Barcelona","13","Barcelones","08019","80193","Barcelona","5","Sarria - Sant Gervasi","427573.041","4583517.633","Educacio infantil 2n cicle","1","3","FALSE",75,75,73,74,1,"(41.39993751, 2.133560941)",3,6441,6803,13244,"2.133560941","41.399937508",97.3,100
"37","2020/2021","2020","8026786","Escola Bellpuig","1","Public","1","Departament d'Ensenyament","1060","Catalunya Central","24","Osona","08220","82205","Sant Julia de Vilatorta","0","0","421816.839","4614648.204","Educacio infantil 2n cicle","1","1","FALSE",25,25,25,25,0,"(41.67976607, 2.060659723)",3,6,7,13,"2.323583672","41.926917551",100,52
"38","2020/2021","2020","8027018","Escola Jaume Balmes","1","Public","1","Departament d'Ensenyament","208","Barcelona Comarques","3","Alt Penedes","08227","82270","Sant Marti Sarroca","0","0","435211.247","4661412.466","Educacio infantil 2n cicle","1","1","FALSE",25,25,24,24,0,"(42.10212759, 2.216441992)",3,11,16,27,"1.608220967","41.386007617",96,100
"39","2020/2021","2020","8008981","Sagrat Cor Besos","2","Privat","22","Fundacions","108","Consorci d'Educacio de Barcelona","13","Barcelones","08019","80193","Barcelona","10","Sant Marti","430592.624","4584389.895","Educacio infantil 2n cicle","1","2","FALSE",50,50,31,34,3,"(41.40806, 2.169580271)",3,6441,6803,13244,"2.217745915","41.415833428",62,100
"40","2020/2021","2020","8013706","Castro  de la Pena","2","Privat","26","Societats Mercantils","108","Consorci d'Educacio de Barcelona","13","Barcelones","08019","80193","Barcelona","7","Horta - Guinardo","426827.032","4583953.168","Educacio infantil 2n cicle","1","1","FALSE",25,25,17,18,1,"(41.40379264, 2.124584835)",3,6441,6803,13244,"2.17548701","41.417118475",68,100
"41","2020/2021","2020","8002630","Escola Els Porxos","1","Public","1","Departament d'Ensenyament","108","Consorci d'Educacio de Barcelona","13","Barcelones","08019","80193","Barcelona","10","Sant Marti","432999.911","4585107.435","Educacio infantil 2n cicle","1","1","FALSE",25,25,19,25,6,"(41.41472693, 2.198299883)",3,6441,6803,13244,"2.198299883","41.414726933",76,100
"42","2020/2021","2020","8025885","La Farga","2","Privat","26","Societats Mercantils","408","Valles Occidental","40","Valles Occident","08205","82055","Sant Cugat del Valles","0","0","422983.811","4593236.561","Educacio infantil 2n cicle","1","4","FALSE",100,100,71,71,0,"(41.48704334, 2.077427823)",3,517,508,1025,"2.058036076","41.46876654",71,100
"43","2020/2021","2020","8021521","Anselm Clave","2","Privat","26","Societats Mercantils","508","Maresme-Valles Oriental","41","Valles Oriental","08124","81249","Mollet del Valles","0","0","433843.226","4598109.754","Educacio infantil 2n cicle","1","1","FALSE",23,23,9,12,3,"(41.53190392, 2.206963663)",3,219,231,450,"2.216811505","41.535200975",39.1,100
"44","2020/2021","2020","8001789","Escola Cervantes","1","Public","1","Departament d'Ensenyament","108","Consorci d'Educacio de Barcelona","13","Barcelones","08019","80193","Barcelona","1","Ciutat vella","431222.936","4582067.916","Educacio infantil 2n cicle","1","1","FALSE",25,25,21,22,1,"(41.38720085, 2.177384602)",3,6441,6803,13244,"2.177384602","41.387200845",84,100
"45","2020/2021","2020","8021685","Escola Font Freda","1","Public","1","Departament d'Ensenyament","408","Valles Occidental","40","Valles Occident","08125","81252","Montcada i Reixac","0","0","438884.877","4590810.119","Educacio infantil 2n cicle","1","2","FALSE",48,48,16,26,10,"(41.46655903, 2.268134736)",3,173,179,352,"2.187448632","41.489441337",33.3,100
"46","2020/2021","2020","8021016","Balmes","2","Privat","29","Altres Titularitats","508","Maresme-Valles Oriental","21","Maresme","08121","81213","Mataro","0","0","453705.687","4598620.104","Educacio infantil 2n cicle","1","1","FALSE",24,24,19,23,4,"(41.53789603, 2.445007178)",3,605,648,1253,"2.444565641","41.542167479",79.2,100
"47","2020/2021","2020","8023921","Escola Espronceda","1","Public","1","Departament d'Ensenyament","408","Valles Occidental","40","Valles Occident","08187","81878","Sabadell","6","Sabadell 6","427317.793","4601259.728","Educacio infantil 2n cicle","1","2","FALSE",44,44,39,42,3,"(41.55970767, 2.128369164)",3,1004,116,1120,"2.113385235","41.529403445",88.6,100
"48","2020/2021","2020","8019551","Igualada","2","Privat","26","Societats Mercantils","1060","Catalunya Central","6","Anoia","08102","81022","Igualada","0","0","384259.329","4605007.013","Educacio infantil 2n cicle","1","2","FALSE",46,46,34,34,0,"(41.58837802, 1.611392763)",3,189,189,378,"1.624663586","41.584241848",73.9,100
"49","2020/2021","2020","8023013","Mare de Deu del Carme","2","Privat","24","Ordes i Congregacions Catolics","308","Baix Llobregat","11","Baix Llobregat","08169","81691","El Prat de Llobregat","0","0","419922.675","4651876.219","Educacio infantil 2n cicle","1","2","FALSE",50,50,44,46,2,"(42.01483953, 2.032868455)",3,292,345,637,"2.092329578","41.328697091",88,100
"50","2020/2021","2020","8002927","Escola Joaquim Ruyra","1","Public","1","Departament d'Ensenyament","108","Consorci d'Educacio de Barcelona","13","Barcelones","08019","80193","Barcelona","10","Sant Marti","434373.859","4584681.635","Educacio infantil 2n cicle","1","2","FALSE",44,44,37,39,2,"(41.41100524, 2.214784761)",3,6441,6803,13244,"2.214784761","41.411005235",84.1,100
"51","2020/2021","2020","8022677","Escola Jacint Verdaguer","1","Public","1","Departament d'Ensenyament","308","Baix Llobregat","11","Baix Llobregat","08157","81574","Palleja","0","0","435520.917","4602001.608","Educacio infantil 2n cicle","1","1","FALSE",25,25,18,19,1,"(41.56709303, 2.226655106)",3,57,58,115,"1.99473661","41.424291894",72,100
"52","2020/2021","2020","8025745","La Salle Sant Celoni","2","Privat","24","Ordes i Congregacions Catolics","508","Maresme-Valles Oriental","41","Valles Oriental","08202","82021","Sant Celoni","0","0","421342.876","4591224.91","Educacio infantil 2n cicle","1","2","FALSE",50,50,40,43,3,"(41.46876654, 2.058036076)",3,80,98,178,"2.487525647","41.688406853",80,100
"53","2020/2021","2020","8025526","Escola Ciutat Cooperativa","1","Public","1","Departament d'Ensenyament","308","Baix Llobregat","11","Baix Llobregat","08200","82009","Sant Boi de Llobregat","0","0","418419.322","4578087.665","Educacio infantil 2n cicle","1","1","FALSE",22,22,8,8,0,"(41.35015673, 2.024800724)",3,400,369,769,"2.032700727","41.356507537",36.4,100
"54","2020/2021","2020","8022094","Escola Josep Orriols i Roca","1","Public","1","Departament d'Ensenyament","1060","Catalunya Central","42","Moianes","08138","81385","Moia","0","0","409559.134","4656668.387","Educacio infantil 2n cicle","1","2","FALSE",50,50,37,37,0,"(42.05687015, 1.906984578)",3,22,28,50,"2.101400826","41.811484241",74,100
"55","2020/2021","2020","8024421","Mare de Deu de la Salut","2","Privat","22","Fundacions","408","Valles Occidental","40","Valles Occident","08187","81878","Sabadell","1","Sabadell 1","425946.307","4599702.133","Educacio infantil 2n cicle","1","2","FALSE",50,50,28,29,1,"(41.54555367, 2.112115692)",3,1004,116,1120,"2.110054016","41.53890021",56,100
"56","2020/2021","2020","8021326","Escola La Fassina","1","Public","1","Departament d'Ensenyament","208","Barcelona Comarques","3","Alt Penedes","08122","81228","Mediona","0","0","417985.576","4584368.184","Educacio infantil 2n cicle","1","1","FALSE",5,5,5,5,0,"(41.40667706, 2.018766666)",3,15,10,25,"1.615056929","41.478030894",100,100
"57","2020/2021","2020","8022495","Escola Terra Nostra","1","Public","1","Departament d'Ensenyament","1060","Catalunya Central","24","Osona","08149","81496","Olost","0","0","431952.093","4605164.587","Educacio infantil 2n cicle","1","1","FALSE",20,20,8,8,0,"(41.59528428, 2.183496868)",3,7,4,11,"2.10075388","41.984749059",40,100
"58","2020/2021","2020","8017979","Escola Aqua Alba","1","Public","1","Departament d'Ensenyament","508","Maresme-Valles Oriental","41","Valles Oriental","08097","80977","Gualba","0","0","425634.046","4580542.687","Educacio infantil 2n cicle","1","1","FALSE",25,25,19,19,0,"(41.37296653, 2.110732683)",3,7,7,14,"2.501282549","41.733492062",76,73.7
"59","2020/2021","2020","8010641","Abat Oliba-Spinola","2","Privat","22","Fundacions","108","Consorci d'Educacio de Barcelona","13","Barcelones","08019","80193","Barcelona","7","Horta - Guinardo","428557.019","4580353.068","Educacio infantil 2n cicle","1","2","FALSE",50,50,37,39,2,"(41.37152348, 2.145704108)",3,6441,6803,13244,"2.167824565","41.415565802",74,100
"60","2020/2021","2020","8022197","Escola Catalunya","1","Public","1","Departament d'Ensenyament","1060","Catalunya Central","7","Bages","08140","81402","Navarcles","0","0","394586.726","4578039.449","Educacio infantil 2n cicle","1","2","FALSE",50,50,32,32,0,"(41.34695626, 1.739977566)",3,36,33,69,"1.907132595","41.753404697",64,100
"61","2020/2021","2020","8002599","Escola Eduard Marquina","1","Public","1","Departament d'Ensenyament","108","Consorci d'Educacio de Barcelona","13","Barcelones","08019","80193","Barcelona","10","Sant Marti","434320.477","4585503.417","Educacio infantil 2n cicle","1","1","FALSE",22,22,14,20,6,"(41.41840246, 2.214056887)",3,6441,6803,13244,"2.214056887","41.418402456",63.6,100
"62","2020/2021","2020","8024595","Claret","2","Privat","26","Societats Mercantils","408","Valles Occidental","40","Valles Occident","08187","81878","Sabadell","1","Sabadell 1","424224.36","4595776.38","Educacio infantil 2n cicle","1","2","FALSE",50,49,36,36,0,"(41.510036, 2.091967)",3,1004,116,1120,"2.112115692","41.545553674",72,100
"63","2020/2021","2020","8024005","Escola Joan Maragall","1","Public","1","Departament d'Ensenyament","408","Valles Occidental","40","Valles Occident","08187","81878","Sabadell","2","Sabadell 2","426004.13","4599717.835","Educacio infantil 2n cicle","1","1","FALSE",22,22,20,20,0,"(41.54570044, 2.112806959)",3,1004,116,1120,"2.103433357","41.566308608",90.9,100
"64","2020/2021","2020","8019149","Escola Bernat Metge","1","Public","1","Departament d'Ensenyament","208","Barcelona Comarques","13","Barcelones","08101","81017","L'Hospitalet de Llobregat","6","Bellvitge - Poligon Gornal","427525.107","4579213.223","Educacio infantil 2n cicle","1","1","FALSE",25,25,17,19,2,"(41.36116506, 2.133502345)",3,1247,128,1375,"2.112096057","41.354664281",68,100
"65","2020/2021","2020","8023475","Sant Gabriel","2","Privat","24","Ordes i Congregacions Catolics","408","Valles Occidental","40","Valles Occident","08180","81803","Ripollet","0","0","443978.117","4603783.595","Educacio infantil 2n cicle","1","1","FALSE",24,24,22,23,1,"(41.58378034, 2.327914928)",3,179,215,394,"2.15572188","41.5007485",91.7,100
"66","2020/2021","2020","8026889","Escola Vinyes Verdes","1","Public","1","Departament d'Ensenyament","1060","Catalunya Central","6","Anoia","08119","81192","Masquefa","0","0","395111.011","4564728.093","Educacio infantil 2n cicle","1","1","FALSE",12,12,8,8,0,"(41.22714753, 1.748535996)",3,52,49,101,"1.839312956","41.497848826",66.7,100
"67","2020/2021","2020","8004641","Lys","2","Privat","21","Cooperatives","108","Consorci d'Educacio de Barcelona","13","Barcelones","08019","80193","Barcelona","5","Sarria - Sant Gervasi","428378.301","4584033.405","Educacio infantil 2n cicle","1","1","FALSE",25,25,15,16,1,"(41.404655, 2.143132154)",3,6441,6803,13244,"2.143132154","41.404654997",60,100
"68","2020/2021","2020","8018017","Escola L'Albiol - ZER Alt Bergueda","1","Public","1","Departament d'Ensenyament","1060","Catalunya Central","14","Bergueda","08903","89030","Sant Julia de Cerdanyola","0","0","425541.367","4580051.252","Educacio infantil 2n cicle","1","0","FALSE",2,2,2,2,0,"(41.36853181, 2.109684911)",3,1,0,1,"1.892754","42.222492",100,50
"69","2020/2021","2020","8016941","Escola Isidre Marti","1","Public","1","Departament d'Ensenyament","308","Baix Llobregat","11","Baix Llobregat","08077","80771","Esplugues de Llobregat","0","0","424662.001","4580911.44","Educacio infantil 2n cicle","1","2","FALSE",50,50,32,45,13,"(41.37619731, 2.099064525)",3,254,199,453,"2.086274499","41.379133265",64,100
"70","2020/2021","2020","8002915","Escola Brasil","1","Public","1","Departament d'Ensenyament","108","Consorci d'Educacio de Barcelona","13","Barcelones","08019","80193","Barcelona","10","Sant Marti","433547.07","4585265.475","Educacio infantil 2n cicle","1","1","FALSE",25,25,25,25,0,"(41.41619579, 2.204829032)",3,6441,6803,13244,"2.204829032","41.416195785",100,100
"71","2020/2021","2020","8014656","Vedruna Berga","2","Privat","22","Fundacions","1060","Catalunya Central","14","Bergueda","08022","80229","Berga","0","0","405726.896","4661600.219","Educacio infantil 2n cicle","1","2","FALSE",50,50,27,27,0,"(42.10082972, 1.859884301)",3,67,83,150,"1.84061263","42.100908908",54,100
"72","2020/2021","2020","8017384","Sagrada Familia","2","Privat","24","Ordes i Congregacions Catolics","308","Baix Llobregat","11","Baix Llobregat","08089","80898","Gava","0","0","415697.727","4573646.899","Educacio infantil 2n cicle","1","3","FALSE",75,75,40,40,0,"(41.30988149, 1.992888235)",3,223,231,454,"1.995597789","41.310822777",53.3,100
"73","2020/2021","2020","8020619","Escola Jose Echegaray","1","Public","1","Departament d'Ensenyament","308","Baix Llobregat","11","Baix Llobregat","08114","81141","Martorell","0","0","442624.943","4592016.411","Educacio infantil 2n cicle","1","2","FALSE",44,44,31,39,8,"(41.47770015, 2.312804803)",3,130,160,290,"1.920135846","41.473276956",70.5,100
"74","2020/2021","2020","8023426","Escola Gasso i Vidal","1","Public","1","Departament d'Ensenyament","408","Valles Occidental","40","Valles Occident","08180","81803","Ripollet","0","0","429354.752","4594813.941","Educacio infantil 2n cicle","1","1","FALSE",24,24,13,15,2,"(41.50183677, 2.15355163)",3,179,215,394,"2.161160801","41.499947003",54.2,100
"75","2020/2021","2020","8004286","Escola Pia de Sarria-Calassanc","2","Privat","24","Ordes i Congregacions Catolics","108","Consorci d'Educacio de Barcelona","13","Barcelones","08019","80193","Barcelona","5","Sarria - Sant Gervasi","426814.239","4584280.081","Educacio infantil 2n cicle","1","3","FALSE",75,75,60,60,0,"(41.40673583, 2.124392265)",3,6441,6803,13244,"2.124392265","41.406735827",80,100
"76","2020/2021","2020","8020036","Joviat","2","Privat","22","Fundacions","1060","Catalunya Central","7","Bages","08113","81136","Manresa","0","0","402713.606","4620684.329","Educacio infantil 2n cicle","1","3","FALSE",69,69,61,69,8,"(41.73201809, 1.830198289)",3,359,387,746,"1.819837763","41.722072478",88.4,100
"77","2020/2021","2020","8004171","Santa Anna-Eixample","2","Privat","22","Fundacions","108","Consorci d'Educacio de Barcelona","13","Barcelones","08019","80193","Barcelona","2","Eixample","430923.764","4582873.262","Educacio infantil 2n cicle","1","1","FALSE",25,25,23,23,0,"(41.39442872, 2.173714832)",3,6441,6803,13244,"2.173714832","41.394428716",92,100
"78","2020/2021","2020","8026038","Pureza de Maria","2","Privat","24","Ordes i Congregacions Catolics","408","Valles Occidental","40","Valles Occident","08205","82055","Sant Cugat del Valles","0","0","453037.452","4616736.771","Educacio infantil 2n cicle","1","3","FALSE",75,75,64,65,1,"(41.70103083, 2.435575491)",3,517,508,1025,"2.074150127","41.495810415",85.3,100
"79","2020/2021","2020","8026725","Escola Joncadella","1","Public","1","Departament d'Ensenyament","1060","Catalunya Central","7","Bages","08218","82188","Sant Joan de Vilatorrada","0","0","422926.945","4581336.656","Educacio infantil 2n cicle","1","1","FALSE",25,25,25,25,0,"(41.37986271, 2.078264191)",3,52,49,101,"1.802575807","41.73988413",100,100
"80","2020/2021","2020","8011199","Adela de Trenquelleon","2","Privat","24","Ordes i Congregacions Catolics","108","Consorci d'Educacio de Barcelona","13","Barcelones","08019","80193","Barcelona","10","Sant Marti","429720.584","4579782.119","Educacio infantil 2n cicle","1","2","FALSE",50,50,32,44,12,"(41.36648356, 2.159682434)",3,6441,6803,13244,"2.194358996","41.414033881",64,100
"81","2020/2021","2020","8020097","Escola Pare Algue","1","Public","1","Departament d'Ensenyament","1060","Catalunya Central","7","Bages","08113","81136","Manresa","0","0","403429.015","4619326.861","Educacio infantil 2n cicle","1","1","FALSE",22,22,22,22,0,"(41.719881, 1.839019)",3,359,387,746,"1.830653081","41.727697705",100,100
"82","2020/2021","2020","8000608","Montserrat","2","Privat","26","Societats Mercantils","208","Barcelona Comarques","13","Barcelones","08015","80155","Badalona","0","0","436165.825","4589179.176","Educacio infantil 2n cicle","1","1","FALSE",25,25,19,19,0,"(41.45165783, 2.235748774)",3,973,1077,2050,"2.235748774","41.451657826",76,100
"83","2020/2021","2020","8001674","Escola Can Clos","1","Public","1","Departament d'Ensenyament","108","Consorci d'Educacio de Barcelona","13","Barcelones","08019","80193","Barcelona","3","Sants - Montjuic","428700.682","4579156.768","Educacio infantil 2n cicle","1","1","FALSE",22,22,10,10,0,"(41.36076155, 2.147562456)",3,6441,6803,13244,"2.147562456","41.360761545",45.5,100
"84","2020/2021","2020","8003695","Escola Barkeno","1","Public","4","Corporacions Locals","108","Consorci d'Educacio de Barcelona","13","Barcelones","08019","80193","Barcelona","3","Sants - Montjuic","428497.166","4578506.924","Educacio infantil 2n cicle","1","1","FALSE",22,22,22,22,0,"(41.35489056, 2.145206111)",3,6441,6803,13244,"2.145206111","41.354890562",100,100
"85","2020/2021","2020","8025061","Llissach","2","Privat","22","Fundacions","1060","Catalunya Central","7","Bages","08192","81923","Santpedor","0","0","434986.609","4586516.195","Educacio infantil 2n cicle","1","1","FALSE",25,25,11,11,0,"(41.42757846, 2.221918455)",3,35,38,73,"1.840091135","41.785123938",44,100
"86","2020/2021","2020","8000396","Escola Ventos i Mir","1","Public","1","Departament d'Ensenyament","208","Barcelona Comarques","13","Barcelones","08015","80155","Badalona","0","0","436984.454","4588423.606","Educacio infantil 2n cicle","1","2","FALSE",50,50,29,50,21,"(41.44491728, 2.245627785)",3,973,1077,2050,"2.245627785","41.444917282",58,100
"87","2020/2021","2020","8022768","Escola Herois del Bruc","1","Public","1","Departament d'Ensenyament","1060","Catalunya Central","6","Anoia","08161","81614","Piera","0","0","392268.204","4585850.821","Educacio infantil 2n cicle","1","2","FALSE",50,50,35,37,2,"(41.41699374, 1.710881863)",3,81,56,137,"1.753167158","41.530423465",70,100
"88","2020/2021","2020","8005801","Mare de Deu del Roser","2","Privat","24","Ordes i Congregacions Catolics","108","Consorci d'Educacio de Barcelona","13","Barcelones","08019","80193","Barcelona","2","Eixample","430053.694","4581851.378","Educacio infantil 2n cicle","1","2","FALSE",50,50,18,18,0,"(41.38514975, 2.163426184)",3,6441,6803,13244,"2.158216138","41.385317445",36,100
"89","2020/2021","2020","8014449","Mare de Deu del Roser Les Planes","2","Privat","22","Fundacions","108","Consorci d'Educacio de Barcelona","13","Barcelones","08019","80193","Barcelona","5","Sarria - Sant Gervasi","411417.046","4576025.663","Educacio infantil 2n cicle","1","1","FALSE",25,25,0,0,0,"(41.33084636, 1.941410863)",3,6441,6803,13244,"2.092577149","41.426804599",0,100
"90","2020/2021","2020","8009685","Sagrada Familia","2","Privat","22","Fundacions","108","Consorci d'Educacio de Barcelona","13","Barcelones","08019","80193","Barcelona","2","Eixample","428924.538","4582048.908","Educacio infantil 2n cicle","1","2","FALSE",50,50,24,25,1,"(41.38682986, 2.149899459)",3,6441,6803,13244,"2.147037981","41.391027987",48,100
"91","2020/2021","2020","8005072","Sadako","2","Privat","22","Fundacions","108","Consorci d'Educacio de Barcelona","13","Barcelones","08019","80193","Barcelona","6","Gracia","427638.708","4585515.673","Educacio infantil 2n cicle","1","2","FALSE",50,50,45,48,3,"(41.41793891, 2.134107499)",3,6441,6803,13244,"2.134107499","41.417938906",90,100
"92","2020/2021","2020","8002526","Escola Tibidabo","1","Public","1","Departament d'Ensenyament","108","Consorci d'Educacio de Barcelona","13","Barcelones","08019","80193","Barcelona","8","Nou Barris","431743.368","4588205.484","Educacio infantil 2n cicle","1","1","FALSE",25,25,24,25,1,"(41.44252424, 2.182916188)",3,6441,6803,13244,"2.182916188","41.442524235",96,100
"93","2020/2021","2020","8002991","Escola Cascavell","1","Public","1","Departament d'Ensenyament","208","Barcelona Comarques","13","Barcelones","08194","81944","Sant Adria de Besos","0","0","434210.658","4585847.354","Educacio infantil 2n cicle","1","1","FALSE",22,22,15,17,2,"(41.42149122, 2.212705465)",3,205,205,410,"2.212705465","41.421491216",68.2,100
"94","2020/2021","2020","8024303","Jaume Viladoms Centre Educatiu","2","Privat","26","Societats Mercantils","408","Valles Occidental","40","Valles Occident","08187","81878","Sabadell","1","Sabadell 1","424804.724","4601196.839","Educacio infantil 2n cicle","1","1","FALSE",25,25,25,25,0,"(41.55890888, 2.098242948)",3,1004,116,1120,"2.096130376","41.544645762",100,100
"95","2020/2021","2020","8000153","Escola Joan Maragall","1","Public","1","Departament d'Ensenyament","508","Maresme-Valles Oriental","21","Maresme","08006","80060","Arenys de Mar","0","0","462182.181","4603512.17","Educacio infantil 2n cicle","1","3","FALSE",75,75,63,63,0,"(41.58240477, 2.54631495)",3,92,62,154,"2.54631495","41.582404768",84,100
"96","2020/2021","2020","8009466","Sant Ramon Nonat-Sagrat Cor","2","Privat","24","Ordes i Congregacions Catolics","108","Consorci d'Educacio de Barcelona","13","Barcelones","08019","80193","Barcelona","4","Les Corts","426063.423","4580950.756","Educacio infantil 2n cicle","1","2","FALSE",50,50,41,50,9,"(41.3766814, 2.115816818)",3,6441,6803,13244,"2.116298596","41.375906699",82,100
"97","2020/2021","2020","8017402","Inmaculada Concepcion","2","Privat","24","Ordes i Congregacions Catolics","308","Baix Llobregat","11","Baix Llobregat","08089","80898","Gava","0","0","416386.209","4573328.066","Educacio infantil 2n cicle","1","3","FALSE",75,75,64,64,0,"(41.30708163, 2.001155765)",3,223,231,454,"2.003507138","41.303060347",85.3,100
"98","2020/2021","2020","8017116","Escola Matilde Orduna","1","Public","1","Departament d'Ensenyament","308","Baix Llobregat","11","Baix Llobregat","08077","80771","Esplugues de Llobregat","0","0","441712.765","4609413.015","Educacio infantil 2n cicle","1","1","FALSE",22,22,17,19,2,"(41.63432026, 2.300192048)",3,254,199,453,"2.099064525","41.37619731",77.3,100
"99","2020/2021","2020","8000165","Escola Sant Marti","1","Public","1","Departament d'Ensenyament","508","Maresme-Valles Oriental","21","Maresme","08007","80076","Arenys de Munt","0","0","461549.887","4606472.086","Educacio infantil 2n cicle","1","1","FALSE",25,25,25,25,0,"(41.60903458, 2.53853995)",3,39,43,82,"2.53853995","41.609034581",100,100
"100","2020/2021","2020","8016872","Escola Mare de Deu de la Muntanya","1","Public","1","Departament d'Ensenyament","308","Baix Llobregat","11","Baix Llobregat","08076","80765","Esparreguera","0","0","424432.447","4581262.388","Educacio infantil 2n cicle","1","1","FALSE",25,25,25,25,0,"(41.37933661, 2.096275959)",3,97,79,176,"1.868214966","41.537758871",100,100
"101","2020/2021","2020","8023487","San Juan de la Cruz","2","Privat","41","Persones Fisiques","408","Valles Occidental","40","Valles Occident","08180","81803","Ripollet","0","0","442441.416","4647741.842","Educacio infantil 2n cicle","1","1","FALSE",24,22,13,13,0,"(41.97957454, 2.305219899)",3,179,215,394,"2.154050501","41.50249205",54.2,100
"102","2020/2021","2020","8000244","Escola Doctor Ferrer","1","Public","1","Departament d'Ensenyament","1060","Catalunya Central","7","Bages","08010","80109","Artes","0","0","412956.696","4627650.886","Educacio infantil 2n cicle","1","2","FALSE",50,50,38,38,0,"(41.79594344, 1.9523232)",3,26,32,58,"1.9523232","41.795943436",76,100
"103","2020/2021","2020","8024030","Escola Samuntada","1","Public","1","Departament d'Ensenyament","408","Valles Occidental","40","Valles Occident","08187","81878","Sabadell","2","Sabadell 2","426573.779","4598113.703","Educacio infantil 2n cicle","1","1","FALSE",25,25,25,25,0,"(41.53130559, 2.119832058)",3,1004,116,1120,"2.11322669","41.555273512",100,100
"104","2020/2021","2020","8002216","Escola Josep Maria de Sagarra","1","Public","1","Departament d'Ensenyament","108","Consorci d'Educacio de Barcelona","13","Barcelones","08019","80193","Barcelona","6","Gracia","428120.424","4585659.582","Educacio infantil 2n cicle","1","1","FALSE",25,25,25,25,0,"(41.41927826, 2.139854109)",3,6441,6803,13244,"2.139854109","41.419278262",100,100
"105","2020/2021","2020","8002174","Escola Baldiri Reixac","1","Public","1","Departament d'Ensenyament","108","Consorci d'Educacio de Barcelona","13","Barcelones","08019","80193","Barcelona","6","Gracia","429211.168","4584986.924","Educacio infantil 2n cicle","1","1","FALSE",25,25,23,25,2,"(41.41331674, 2.152983813)",3,6441,6803,13244,"2.152983813","41.413316739",92,100
"106","2020/2021","2020","8015703","FEDAC-Castellar","2","Privat","24","Ordes i Congregacions Catolics","408","Valles Occidental","40","Valles Occident","08051","80517","Castellar del Valles","0","0","429227.445","4623523.943","Educacio infantil 2n cicle","1","1","FALSE",25,25,22,22,0,"(41.76039515, 2.148630831)",3,99,125,224,"2.087485939","41.618425617",88,100
"107","2020/2021","2020","8023189","FEDAC-Prats","2","Privat","22","Fundacions","1060","Catalunya Central","24","Osona","08171","81712","Prats de Llucanes","0","0","446541.419","4593531.37","Educacio infantil 2n cicle","1","1","FALSE",25,25,10,10,0,"(41.49161593, 2.359576141)",3,14,8,22,"2.029701291","42.009598708",40,100
"108","2020/2021","2020","8019575","Escolapies Igualada","2","Privat","22","Fundacions","1060","Catalunya Central","6","Anoia","08102","81022","Igualada","0","0","383389.162","4604554.747","Educacio infantil 2n cicle","1","2","FALSE",46,46,20,21,1,"(41.58417897, 1.601043779)",3,189,189,378,"1.620442512","41.578733189",43.5,100
"109","2020/2021","2020","8019915","Vedruna Malgrat de Mar","2","Privat","22","Fundacions","508","Maresme-Valles Oriental","21","Maresme","08110","81108","Malgrat de Mar","0","0","400708.334","4618609.52","Educacio infantil 2n cicle","1","2","FALSE",50,50,37,40,3,"(41.71308616, 1.806437125)",3,68,70,138,"2.742380599","41.645271087",74,100
"110","2020/2021","2020","8002010","Escola Lluis Vives","1","Public","1","Departament d'Ensenyament","108","Consorci d'Educacio de Barcelona","13","Barcelones","08019","80193","Barcelona","3","Sants - Montjuic","427082.391","4580401.96","Educacio infantil 2n cicle","1","1","FALSE",26,26,25,26,1,"(41.37183158, 2.128066963)",3,6441,6803,13244,"2.128066963","41.371831579",96.2,100
"111","2020/2021","2020","8025769","Cor de Maria","2","Privat","22","Fundacions","508","Maresme-Valles Oriental","41","Valles Oriental","08202","82021","Sant Celoni","0","0","423390.859","4591088.066","Educacio infantil 2n cicle","1","1","FALSE",25,25,8,10,2,"(41.46773229, 2.082576158)",3,80,98,178,"2.488269536","41.689936993",32,100
"112","2020/2021","2020","8022367","Escola Rossend Montane","1","Public","1","Departament d'Ensenyament","208","Barcelona Comarques","3","Alt Penedes","08145","81458","Olerdola","0","0","407748.381","4599813.02","Educacio infantil 2n cicle","1","1","FALSE",11,11,11,11,0,"(41.54466081, 1.893945545)",3,12,17,29,"1.739977566","41.346956259",100,100
"113","2020/2021","2020","8021193","El Turo","2","Privat","22","Fundacions","508","Maresme-Valles Oriental","21","Maresme","08121","81213","Mataro","0","0","384368.355","4592750.951","Educacio infantil 2n cicle","1","1","FALSE",24,24,13,16,3,"(41.47803089, 1.615056929)",3,605,648,1253,"2.42771896","41.543983516",54.2,100
"114","2020/2021","2020","8026798","El Roser","2","Privat","22","Fundacions","1060","Catalunya Central","24","Osona","08220","82205","Sant Julia de Vilatorta","0","0","376802.224","4602099.157","Educacio infantil 2n cicle","1","1","FALSE",25,25,3,3,0,"(41.56107949, 1.522550261)",3,6,7,13,"2.3179928","41.929436186",12,100
"115","2020/2021","2020","8001029","Boix","2","Privat","26","Societats Mercantils","208","Barcelona Comarques","13","Barcelones","08015","80155","Badalona","0","0","436832.859","4590180.253","Educacio infantil 2n cicle","1","1","FALSE",25,25,8,8,0,"(41.46072704, 2.243629384)",3,973,1077,2050,"2.243629384","41.460727038",32,100
"116","2020/2021","2020","8016240","Escola Santa Maria de Cervello","1","Public","1","Departament d'Ensenyament","308","Baix Llobregat","11","Baix Llobregat","08068","80689","Cervello","0","0","423813.805","4578346.963","Educacio infantil 2n cicle","1","2","FALSE",50,50,28,34,6,"(41.35302043, 2.089244667)",3,48,42,90,"1.953712739","41.393548007",56,100
"117","2020/2021","2020","8002484","Escola Aiguamarina","1","Public","1","Departament d'Ensenyament","108","Consorci d'Educacio de Barcelona","13","Barcelones","08019","80193","Barcelona","8","Nou Barris","431143.497","4588142.484","Educacio infantil 2n cicle","1","1","FALSE",22,22,13,22,9,"(41.44190559, 2.175743164)",3,6441,6803,13244,"2.175743164","41.441905593",59.1,100
"118","2020/2021","2020","8015612","Escola Joan de Pala - ZER El Cardener","1","Public","1","Departament d'Ensenyament","1060","Catalunya Central","7","Bages","08047","80478","Cardona","0","0","424778.214","4607968.997","Educacio infantil 2n cicle","1","0","FALSE",5,5,2,2,0,"(41.61989776, 2.097075566)",3,28,12,40,"1.696261453","41.908909962",40,100
"119","2020/2021","2020","8027021","Escola Font de l'Anoia - ZER Vent d'Avall","1","Public","1","Departament d'Ensenyament","1060","Catalunya Central","6","Anoia","08228","82286","Sant Marti Sesgueioles","0","0","398693.519","4586677.588","Educacio infantil 2n cicle","1","0","FALSE",7,7,1,1,0,"(41.42527494, 1.787611616)",3,0,1,1,"1.491289149","41.701327254",14.3,100
"120","2020/2021","2020","8018315","Pare Enric d'Osso","2","Privat","22","Fundacions","208","Barcelona Comarques","13","Barcelones","08101","81017","L'Hospitalet de Llobregat","6","Bellvitge - Poligon Gornal","425703.517","4580315.907","Educacio infantil 2n cicle","1","2","FALSE",50,50,46,49,3,"(41.37093043, 2.111591117)",3,1247,128,1375,"2.114169897","41.349840805",92,100
"121","2020/2021","2020","8000921","Arrels-Esperanca","2","Privat","22","Fundacions","208","Barcelona Comarques","13","Barcelones","08015","80155","Badalona","0","0","435216.459","4587780.529","Educacio infantil 2n cicle","1","4","FALSE",100,100,100,100,0,"(41.43898455, 2.224533537)",3,973,1077,2050,"2.224533537","41.438984545",100,100
"122","2020/2021","2020","8019231","Escola Milagros Consarnau","1","Public","1","Departament d'Ensenyament","208","Barcelona Comarques","13","Barcelones","08101","81017","L'Hospitalet de Llobregat","3","Santa Eulalia","427019.632","4579657.11","Educacio infantil 2n cicle","1","2","FALSE",50,50,50,50,0,"(41.36511732, 2.127406236)",3,1247,128,1375,"2.12942569","41.364316832",100,100
"123","2020/2021","2020","8020772","Escolapies El Masnou","2","Privat","22","Fundacions","508","Maresme-Valles Oriental","21","Maresme","08118","81189","El Masnou","0","0","417946.528","4607248.628","Educacio infantil 2n cicle","1","2","FALSE",50,50,45,50,5,"(41.61273687, 2.01518132)",3,118,103,221,"2.319418743","41.480864481",90,100
"124","2020/2021","2020","8018340","Alegre","2","Privat","26","Societats Mercantils","208","Barcelona Comarques","13","Barcelones","08101","81017","L'Hospitalet de Llobregat","5","Pubilla Casas","423781.344","4579835.132","Educacio infantil 2n cicle","1","1","FALSE",25,25,24,24,0,"(41.3664206, 2.088669698)",3,1247,128,1375,"2.100257346","41.369039852",96,100
"125","2020/2021","2020","8002393","Escola L'Arc de Sant Marti","1","Public","1","Departament d'Ensenyament","108","Consorci d'Educacio de Barcelona","13","Barcelones","08019","80193","Barcelona","10","Sant Marti","433128.957","4585997.318","Educacio infantil 2n cicle","1","1","FALSE",22,22,17,21,4,"(41.4227526, 2.199745471)",3,6441,6803,13244,"2.199745471","41.422752596",77.3,100
"126","2020/2021","2020","8019711","Escola Sagrada Familia","1","Public","1","Departament d'Ensenyament","508","Maresme-Valles Oriental","41","Valles Oriental","08105","81056","La Llagosta","0","0","436627.809","4604159.181","Educacio infantil 2n cicle","1","1","FALSE",25,25,25,25,0,"(41.58661381, 2.239701871)",3,50,71,121,"2.190143343","41.515065732",100,100
"127","2020/2021","2020","8016173","Escola Mare de Deu de Montserrat","1","Public","1","Departament d'Ensenyament","308","Baix Llobregat","11","Baix Llobregat","08066","80667","Castellvi de Rosanes","0","0","413689.358","4585260.4","Educacio infantil 2n cicle","1","1","FALSE",25,25,18,18,0,"(41.41426269, 1.967246597)",3,1,8,9,"1.898432162","41.450735288",72,50
"128","2020/2021","2020","8003491","Escola De Bosc de Montjuic","1","Public","4","Corporacions Locals","108","Consorci d'Educacio de Barcelona","13","Barcelones","08019","80193","Barcelona","3","Sants - Montjuic","429842.762","4580041.148","Educacio infantil 2n cicle","1","1","FALSE",25,25,23,25,2,"(41.36882721, 2.161113179)",3,6441,6803,13244,"2.161113179","41.368827213",92,100
"129","2020/2021","2020","8024984","Vedruna Sallent","2","Privat","22","Fundacions","1060","Catalunya Central","7","Bages","08191","81918","Sallent","0","0","434140.561","4586102.985","Educacio infantil 2n cicle","1","1","FALSE",25,25,14,14,0,"(41.42378787, 2.211838859)",3,31,25,56,"1.898306291","41.824006435",56,100
"130","2020/2021","2020","8021041","Escola Josep Montserrat","1","Public","1","Departament d'Ensenyament","508","Maresme-Valles Oriental","21","Maresme","08121","81213","Mataro","0","0","453510.317","4599302.837","Educacio infantil 2n cicle","1","1","FALSE",22,22,9,9,0,"(41.54403406, 2.442612319)",3,605,648,1253,"2.42879878","41.538133494",40.9,100
"131","2020/2021","2020","8017505","Escola Juan Salamero","1","Public","1","Departament d'Ensenyament","308","Baix Llobregat","11","Baix Llobregat","08089","80898","Gava","0","0","407292.77","4654370.618","Educacio infantil 2n cicle","1","0","FALSE",11,11,9,9,0,"(42.03591494, 1.879963171)",3,223,231,454,"1.992888235","41.309881492",81.8,100
"132","2020/2021","2020","8026506","Sant Jordi","2","Privat","21","Cooperatives","508","Maresme-Valles Oriental","21","Maresme","08214","82140","Vilassar de Dalt","0","0","421713.029","4580184.352","Educacio infantil 2n cicle","1","1","FALSE",25,25,11,12,1,"(41.36936735, 2.063897327)",3,30,41,71,"2.36083256","41.516760734",44,100
"133","2020/2021","2020","8005412","Lleo XIII","2","Privat","26","Societats Mercantils","108","Consorci d'Educacio de Barcelona","13","Barcelones","08019","80193","Barcelona","5","Sarria - Sant Gervasi","427881.088","4584907.74","Educacio infantil 2n cicle","1","1","FALSE",25,25,15,15,0,"(41.41248531, 2.13708004)",3,6441,6803,13244,"2.13708004","41.412485311",60,100
"134","2020/2021","2020","8018303","Alpes","2","Privat","26","Societats Mercantils","208","Barcelona Comarques","13","Barcelones","08101","81017","L'Hospitalet de Llobregat","1","Centre - Sant Josep - Santfeliu","425676.479","4580371.613","Educacio infantil 2n cicle","1","1","FALSE",25,25,16,16,0,"(41.37142966, 2.11126102)",3,1247,128,1375,"2.098340484","41.362914967",64,100
"135","2020/2021","2020","8003610","Jesus Maria","2","Privat","24","Ordes i Congregacions Catolics","108","Consorci d'Educacio de Barcelona","13","Barcelones","08019","80193","Barcelona","3","Sants - Montjuic","429362.592","4580647.265","Educacio infantil 2n cicle","1","2","FALSE",50,50,28,33,5,"(41.37424431, 2.155301649)",3,6441,6803,13244,"2.155301649","41.374244314",56,100
"136","2020/2021","2020","8026841","Madre Sacramento","2","Privat","24","Ordes i Congregacions Catolics","308","Baix Llobregat","11","Baix Llobregat","08221","82212","Sant Just Desvern","0","0","397321.945","4568575.497","Educacio infantil 2n cicle","1","1","FALSE",25,25,11,12,1,"(41.26208009, 1.77426212)",3,105,105,210,"2.078264191","41.379862707",44,100
"137","2020/2021","2020","8025666","Escola Aurora - ZER Alt Llucanes","1","Public","1","Departament d'Ensenyament","1060","Catalunya Central","24","Osona","08201","82016","Sant Boi de Llucanes","0","0","422093.313","4588997.118","Educacio infantil 2n cicle","1","0","FALSE",6,6,2,2,0,"(41.44877556, 2.067309365)",3,1,2,3,"2.151629012","42.060333892",33.3,100
"138","2020/2021","2020","8011394","Sant Joan Bosco","2","Privat","24","Ordes i Congregacions Catolics","108","Consorci d'Educacio de Barcelona","13","Barcelones","08019","80193","Barcelona","7","Horta - Guinardo","431782.071","4586301.254","Educacio infantil 2n cicle","1","3","FALSE",75,75,48,52,4,"(41.42537681, 2.183594378)",3,6441,6803,13244,"2.149090729","41.436128542",64,100
"139","2020/2021","2020","8023852","Escola Joan Maragall","1","Public","1","Departament d'Ensenyament","408","Valles Occidental","40","Valles Occident","08184","81846","Rubi","0","0","424609.858","4601868.357","Educacio infantil 2n cicle","1","2","FALSE",50,50,47,50,3,"(41.56493839, 2.095822048)",3,389,392,781,"1.992264459","41.527320155",94,100
"140","2020/2021","2020","8011448","Gravi","2","Privat","21","Cooperatives","108","Consorci d'Educacio de Barcelona","13","Barcelones","08019","80193","Barcelona","6","Gracia","425030.154","4584801.058","Educacio infantil 2n cicle","1","2","FALSE",50,50,20,22,2,"(41.4112636, 2.102985088)",3,6441,6803,13244,"2.140812391","41.42036843",40,100
"141","2020/2021","2020","8021557","Mollet","2","Privat","26","Societats Mercantils","508","Maresme-Valles Oriental","41","Valles Oriental","08124","81249","Mollet del Valles","0","0","434659.035","4600727.649","Educacio infantil 2n cicle","1","1","FALSE",23,23,23,23,0,"(41.55554912, 2.216457465)",3,219,231,450,"2.213445061","41.535979613",100,100
"142","2020/2021","2020","8008504","Providencia del Corazon de Jesus","2","Privat","24","Ordes i Congregacions Catolics","108","Consorci d'Educacio de Barcelona","13","Barcelones","08019","80193","Barcelona","7","Horta - Guinardo","432548.467","4587201.284","Educacio infantil 2n cicle","1","2","FALSE",50,50,18,20,2,"(41.43354779, 2.192665003)",3,6441,6803,13244,"2.158114324","41.438708986",36,100
"143","2020/2021","2020","8005151","Sant Francesc Xavier","2","Privat","26","Societats Mercantils","108","Consorci d'Educacio de Barcelona","13","Barcelones","08019","80193","Barcelona","3","Sants - Montjuic","429591.082","4580455.646","Educacio infantil 2n cicle","1","1","FALSE",25,25,0,0,0,"(41.37253849, 2.158055956)",3,6441,6803,13244,"2.158055956","41.372538486",0,100
"144","2020/2021","2020","8007524","Princeps 23 d'Abril","2","Privat","21","Cooperatives","108","Consorci d'Educacio de Barcelona","13","Barcelones","08019","80193","Barcelona","8","Nou Barris","431653.318","4586355.656","Educacio infantil 2n cicle","1","1","FALSE",25,25,16,21,5,"(41.42585584, 2.182047518)",3,6441,6803,13244,"2.17423979","41.440017568",64,100
"145","2020/2021","2020","8007871","Sant Ferran","2","Privat","26","Societats Mercantils","108","Consorci d'Educacio de Barcelona","13","Barcelones","08019","80193","Barcelona","8","Nou Barris","431914.831","4584683.024","Educacio infantil 2n cicle","1","1","FALSE",25,25,15,17,2,"(41.41081321, 2.185365197)",3,6441,6803,13244,"2.175276446","41.442491829",60,100
"146","2020/2021","2020","8025320","Escola La Monjoia","1","Public","1","Departament d'Ensenyament","1060","Catalunya Central","24","Osona","08199","81995","Sant Bartomeu del Grau","0","0","419088.073","4578785.319","Educacio infantil 2n cicle","1","1","FALSE",20,20,10,10,0,"(41.35650754, 2.032700727)",3,1,4,5,"2.177181154","41.980357711",50,50
"147","2020/2021","2020","8019009","Sant Jaume de la FEP","2","Privat","22","Fundacions","208","Barcelona Comarques","13","Barcelones","08101","81017","L'Hospitalet de Llobregat","2","Collblanc - Torrassa","424416.916","4579419.443","Educacio infantil 2n cicle","1","2","FALSE",50,50,41,44,3,"(41.36273661, 2.096319988)",3,1247,128,1375,"2.123233109","41.370651415",82,100
"148","2020/2021","2020","8001716","Escola Dolors Monserda-Santapau","1","Public","1","Departament d'Ensenyament","108","Consorci d'Educacio de Barcelona","13","Barcelones","08019","80193","Barcelona","5","Sarria - Sant Gervasi","426079.608","4584119.718","Educacio infantil 2n cicle","1","2","FALSE",50,50,50,50,0,"(41.4052243, 2.11562359)",3,6441,6803,13244,"2.11562359","41.405224297",100,100
"149","2020/2021","2020","8020887","Montcau-La Mola","2","Privat","26","Societats Mercantils","408","Valles Occidental","40","Valles Occident","08120","81206","Matadepera","0","0","453671.905","4599094.559","Educacio infantil 2n cicle","1","2","FALSE",50,50,32,32,0,"(41.54216748, 2.444565641)",3,37,53,90,"2.01518132","41.612736872",64,100
"150","2020/2021","2020","8023591","Escola Pilar Mestres-Jaume Torrens","1","Public","1","Departament d'Ensenyament","508","Maresme-Valles Oriental","41","Valles Oriental","08181","81810","La Roca del Valles","0","0","419247.167","4593419.499","Educacio infantil 2n cicle","1","1","FALSE",25,24,15,17,2,"(41.48832321, 2.032648277)",3,49,32,81,"2.327914928","41.583780336",60,100
"151","2020/2021","2020","8024017","Escola Miquel Carreras","1","Public","1","Departament d'Ensenyament","408","Valles Occidental","40","Valles Occident","08187","81878","Sabadell","3","Sabadell 3","425820.235","4599880.995","Educacio infantil 2n cicle","1","1","FALSE",25,25,12,13,1,"(41.54715288, 2.110582221)",3,1004,116,1120,"2.093153206","41.56468813",48,100
"152","2020/2021","2020","8026671","Escola Joan Perich i Valls","1","Public","1","Departament d'Ensenyament","308","Baix Llobregat","11","Baix Llobregat","08217","82172","Sant Joan Despi","0","0","422657.757","4581029.563","Educacio infantil 2n cicle","1","1","FALSE",25,25,21,21,0,"(41.37707105, 2.0750845)",3,161,165,326,"2.065580228","41.37458102",84,100
"153","2020/2021","2020","8002113","Escola Rius i Taulet","1","Public","1","Departament d'Ensenyament","108","Consorci d'Educacio de Barcelona","13","Barcelones","08019","80193","Barcelona","6","Gracia","428987.579","4584386.89","Educacio infantil 2n cicle","1","2","FALSE",50,50,41,50,9,"(41.40789275, 2.150379183)",3,6441,6803,13244,"2.150379183","41.407892748",82,100
"154","2020/2021","2020","8023955","Escola Cifuentes","1","Public","1","Departament d'Ensenyament","408","Valles Occidental","40","Valles Occident","08187","81878","Sabadell","4","Sabadell 4","426050.049","4600780.295","Educacio infantil 2n cicle","1","2","FALSE",50,50,49,49,0,"(41.55527351, 2.11322669)",3,1004,116,1120,"2.081447692","41.54866199",98,100
"155","2020/2021","2020","8020267","L'Ave Maria","2","Privat","24","Ordes i Congregacions Catolics","1060","Catalunya Central","7","Bages","08113","81136","Manresa","0","0","402345.616","4620543.142","Educacio infantil 2n cicle","1","1","FALSE",24,24,25,25,0,"(41.73070154, 1.825797514)",3,359,387,746,"1.826293674","41.733854708",104.2,100
"156","2020/2021","2020","8001391","Escola Planas i Casals","1","Public","1","Departament d'Ensenyament","208","Barcelona Comarques","13","Barcelones","08015","80155","Badalona","0","0","436305.01","4590147.12","Educacio infantil 2n cicle","1","2","FALSE",50,50,28,28,0,"(41.46038689, 2.237312895)",3,973,1077,2050,"2.237312895","41.460386888",56,100
"157","2020/2021","2020","8006490","Montserrat","2","Privat","21","Cooperatives","108","Consorci d'Educacio de Barcelona","13","Barcelones","08019","80193","Barcelona","3","Sants - Montjuic","427662.131","4581624.52","Educacio infantil 2n cicle","1","2","FALSE",50,50,49,50,1,"(41.38289503, 2.1348527)",3,6441,6803,13244,"2.137783815","41.374483103",98,100
"158","2020/2021","2020","8016461","El Pilar","2","Privat","26","Societats Mercantils","308","Baix Llobregat","11","Baix Llobregat","08073","80734","Cornella de Llobregat","0","0","423091.095","4578724.772","Educacio infantil 2n cicle","1","1","FALSE",25,25,24,24,0,"(41.35635448, 2.080558326)",3,383,418,801,"2.079576561","41.360556314",96,100
"159","2020/2021","2020","8009508","Santa Teresa de Lisieux","2","Privat","22","Fundacions","108","Consorci d'Educacio de Barcelona","13","Barcelones","08019","80193","Barcelona","4","Les Corts","429286.218","4582514.572","Educacio infantil 2n cicle","1","2","FALSE",50,50,50,50,0,"(41.3910558, 2.154170531)",3,6441,6803,13244,"2.134814597","41.388243755",100,100
"160","2020/2021","2020","8019460","Escola Emili Valles","1","Public","1","Departament d'Ensenyament","1060","Catalunya Central","6","Anoia","08102","81022","Igualada","0","0","384937.26","4605512.834","Educacio infantil 2n cicle","1","2","FALSE",42,42,23,37,14,"(41.59303071, 1.619426959)",3,189,189,378,"1.60288634","41.582207064",54.8,100
"161","2020/2021","2020","8016744","Escola Antoni Gaudi","1","Public","1","Departament d'Ensenyament","308","Baix Llobregat","11","Baix Llobregat","08073","80734","Cornella de Llobregat","0","0","405592.222","4599074.548","Educacio infantil 2n cicle","1","1","FALSE",25,25,22,25,3,"(41.53775887, 1.868214966)",3,383,418,801,"2.080558326","41.356354482",88,100
"162","2020/2021","2020","8017633","Escola Sant Marc","1","Public","1","Departament d'Ensenyament","1060","Catalunya Central","14","Bergueda","08092","80924","Gironella","0","0","440451.511","4605736.881","Educacio infantil 2n cicle","1","1","FALSE",18,18,7,7,0,"(41.60111773, 2.285415896)",3,23,27,50,"1.882340112","42.02124535",38.9,100
"163","2020/2021","2020","8017773","Cerveto","2","Privat","26","Societats Mercantils","508","Maresme-Valles Oriental","41","Valles Oriental","08096","80961","Granollers","0","0","440818.487","4606866.207","Educacio infantil 2n cicle","1","2","FALSE",50,50,37,44,7,"(41.61131639, 2.289707737)",3,297,317,614,"2.283845117","41.604741659",74,100
"164","2020/2021","2020","8018376","La Florida","2","Privat","21","Cooperatives","208","Barcelona Comarques","13","Barcelones","08101","81017","L'Hospitalet de Llobregat","4","La Florida","426482.979","4578637.255","Educacio infantil 2n cicle","1","1","FALSE",25,25,22,25,3,"(41.35588306, 2.121114028)",3,1247,128,1375,"2.11126102","41.371429662",88,100
"165","2020/2021","2020","8002873","Escola Bac de Roda","1","Public","1","Departament d'Ensenyament","108","Consorci d'Educacio de Barcelona","13","Barcelones","08019","80193","Barcelona","10","Sant Marti","432661.354","4585304.566","Educacio infantil 2n cicle","1","2","FALSE",50,50,42,44,2,"(41.41647413, 2.194227266)",3,6441,6803,13244,"2.194227266","41.416474132",84,100
"166","2020/2021","2020","8016380","Escola Anselm Clave","1","Public","1","Departament d'Ensenyament","308","Baix Llobregat","11","Baix Llobregat","08073","80734","Cornella de Llobregat","0","0","423013.924","4579192.123","Educacio infantil 2n cicle","1","1","FALSE",25,25,15,22,7,"(41.36055631, 2.079576561)",3,383,418,801,"2.07125778","41.355546046",60,100
"167","2020/2021","2020","8023359","Escola Virolai - ZER Cep de Sis","1","Public","1","Departament d'Ensenyament","208","Barcelona Comarques","3","Alt Penedes","08174","81748","Puigdalber","0","0","429534.705","4594691.35","Educacio infantil 2n cicle","1","0","FALSE",6,6,3,3,0,"(41.5007485, 2.15572188)",3,4,2,6,"1.701835496","41.40452338",50,100
"168","2020/2021","2020","8015429","Mare del Divi Pastor","2","Privat","24","Ordes i Congregacions Catolics","1060","Catalunya Central","6","Anoia","08044","80446","Capellades","0","0","390184.293","4640889.497","Educacio infantil 2n cicle","1","1","FALSE",25,25,12,12,0,"(41.91232414, 1.67583462)",3,26,27,53,"1.688077892","41.530264797",48,100
"169","2020/2021","2020","8022011","Escola Pau Casals","1","Public","1","Departament d'Ensenyament","508","Maresme-Valles Oriental","41","Valles Oriental","08135","81350","Montmelo","0","0","425360.56","4629236.11","Educacio infantil 2n cicle","1","2","FALSE",50,50,30,30,0,"(41.81148424, 2.101400826)",3,33,37,70,"2.250491769","41.555792476",60,100
"170","2020/2021","2020","8017682","Escola Jacint Verdaguer","1","Public","1","Departament d'Ensenyament","208","Barcelona Comarques","3","Alt Penedes","08094","80945","La Granada","0","0","440878.559","4606136.278","Educacio infantil 2n cicle","1","1","FALSE",25,23,18,18,0,"(41.60474667, 2.290500701)",3,11,13,24,"1.721706313","41.377158656",72,100
"171","2020/2021","2020","8010031","Grimm","2","Privat","26","Societats Mercantils","108","Consorci d'Educacio de Barcelona","13","Barcelones","08019","80193","Barcelona","10","Sant Marti","430143.998","4585880.538","Educacio infantil 2n cicle","1","1","FALSE",25,25,22,23,1,"(41.4214468, 2.164041145)",3,6441,6803,13244,"2.179314144","41.412387523",88,100
"172","2020/2021","2020","8027134","Escola Les Roquetes","1","Public","1","Departament d'Ensenyament","208","Barcelona Comarques","17","Garraf","08231","82310","Sant Pere de Ribes","0","0","434933.786","4589155.419","Educacio infantil 2n cicle","1","2","FALSE",36,36,33,33,0,"(41.45134492, 2.22100211)",3,146,141,287,"1.748535996","41.227147525",91.7,100
"173","2020/2021","2020","8020656","Escola Simeo Rabasa","1","Public","1","Departament d'Ensenyament","508","Maresme-Valles Oriental","41","Valles Oriental","08115","81154","Martorelles","0","0","443345.463","4592856.939","Educacio infantil 2n cicle","1","1","FALSE",25,25,21,21,0,"(41.48532189, 2.321355088)",3,18,27,45,"2.242390972","41.529609029",84,100
"174","2020/2021","2020","8013411","Escola Poble-sec","1","Public","1","Departament d'Ensenyament","108","Consorci d'Educacio de Barcelona","13","Barcelones","08019","80193","Barcelona","3","Sants - Montjuic","434183.613","4585208.024","Educacio infantil 2n cicle","1","2","FALSE",50,50,33,41,8,"(41.41573073, 2.212451423)",3,6441,6803,13244,"2.165211516","41.370510131",66,100
"175","2020/2021","2020","8022811","FEDAC-Pineda","2","Privat","22","Fundacions","508","Maresme-Valles Oriental","21","Maresme","08163","81635","Pineda de Mar","0","0","430188.423","4600592.204","Educacio infantil 2n cicle","1","1","FALSE",25,25,23,25,2,"(41.55395147, 2.162868755)",3,121,130,251,"2.690497245","41.625967714",92,100
"176","2020/2021","2020","8011941","Escola Pia Balmes","2","Privat","24","Ordes i Congregacions Catolics","108","Consorci d'Educacio de Barcelona","13","Barcelones","08019","80193","Barcelona","5","Sarria - Sant Gervasi","427541.818","4585277.41","Educacio infantil 2n cicle","1","3","FALSE",75,75,55,55,0,"(41.41578425, 2.132976757)",3,6441,6803,13244,"2.151861941","41.397799729",73.3,100
"177","2020/2021","2020","8004559","Abat Oliba-Loreto","2","Privat","22","Fundacions","108","Consorci d'Educacio de Barcelona","13","Barcelones","08019","80193","Barcelona","4","Les Corts","425369.383","4582836.99","Educacio infantil 2n cicle","1","3","FALSE",75,74,60,60,0,"(41.39360577, 2.107285631)",3,6441,6803,13244,"2.107285631","41.39360577",80,100
"178","2020/2021","2020","8004705","Reial Monestir de Santa Isabel","2","Privat","24","Ordes i Congregacions Catolics","108","Consorci d'Educacio de Barcelona","13","Barcelones","08019","80193","Barcelona","5","Sarria - Sant Gervasi","426983.18","4583228.291","Educacio infantil 2n cicle","1","4","FALSE",100,100,71,72,1,"(41.39727818, 2.12654015)",3,6441,6803,13244,"2.12654015","41.397278181",71,100
"179","2020/2021","2020","8022422","Povill","2","Privat","26","Societats Mercantils","308","Baix Llobregat","11","Baix Llobregat","08147","81477","Olesa de Montserrat","0","0","388654.139","4579679.586","Educacio infantil 2n cicle","1","2","FALSE",50,50,40,40,0,"(41.36092797, 1.668781301)",3,112,117,229,"1.893945545","41.544660813",80,100
"180","2020/2021","2020","8026211","Escola Nadal","1","Public","1","Departament d'Ensenyament","308","Baix Llobregat","11","Baix Llobregat","08211","82114","Sant Feliu de Llobregat","0","0","420547.485","4582100.673","Educacio infantil 2n cicle","1","2","FALSE",50,50,50,50,0,"(41.38651231, 2.049711156)",3,189,226,415,"2.044536114","41.382870664",100,100
"181","2020/2021","2020","8016392","Escola Mossen Jacint Verdaguer","1","Public","1","Departament d'Ensenyament","308","Baix Llobregat","11","Baix Llobregat","08073","80734","Cornella de Llobregat","0","0","422922.165","4579707.124","Educacio infantil 2n cicle","1","1","FALSE",25,25,24,25,1,"(41.36518589, 2.078414214)",3,383,418,801,"2.079960451","41.358269812",96,100
"182","2020/2021","2020","8009934","La Salle Horta","2","Privat","24","Ordes i Congregacions Catolics","108","Consorci d'Educacio de Barcelona","13","Barcelones","08019","80193","Barcelona","7","Horta - Guinardo","431432.179","4585698.929","Educacio infantil 2n cicle","1","2","FALSE",50,50,43,45,2,"(41.41992208, 2.179475714)",3,6441,6803,13244,"2.160946551","41.43650176",86,100
"183","2020/2021","2020","8023566","Escola Anselm Clave","1","Public","1","Departament d'Ensenyament","408","Valles Occidental","40","Valles Occident","08180","81803","Ripollet","0","0","419497.499","4593428.242","Educacio infantil 2n cicle","1","1","FALSE",24,24,24,24,0,"(41.48842713, 2.03564546)",3,179,215,394,"2.156498165","41.499381463",100,100
"184","2020/2021","2020","8026269","Bon Salvador","2","Privat","24","Ordes i Congregacions Catolics","308","Baix Llobregat","11","Baix Llobregat","08211","82114","Sant Feliu de Llobregat","0","0","418491.104","4644079.004","Educacio infantil 2n cicle","1","3","FALSE",75,75,46,46,0,"(41.94447576, 2.016662119)",3,189,226,415,"2.043370898","41.379879113",61.3,100
"185","2020/2021","2020","8023207","Escola Llucanes","1","Public","1","Departament d'Ensenyament","1060","Catalunya Central","24","Osona","08171","81712","Prats de Llucanes","0","0","446243.782","4593755.062","Educacio infantil 2n cicle","1","1","FALSE",25,25,11,11,0,"(41.49361078, 2.355990768)",3,14,8,22,"2.032868455","42.014839528",44,100
"186","2020/2021","2020","8009806","FEDAC-Horta","2","Privat","22","Fundacions","108","Consorci d'Educacio de Barcelona","13","Barcelones","08019","80193","Barcelona","7","Horta - Guinardo","429901.596","4587554.429","Educacio infantil 2n cicle","1","2","FALSE",50,50,50,50,0,"(41.43650176, 2.160946551)",3,6441,6803,13244,"2.155183751","41.434493219",100,100
"187","2020/2021","2020","8010304","Santa Teresa de Jesus","2","Privat","26","Societats Mercantils","108","Consorci d'Educacio de Barcelona","13","Barcelones","08019","80193","Barcelona","7","Horta - Guinardo","431577.895","4584308.947","Educacio infantil 2n cicle","1","1","FALSE",25,25,16,17,1,"(41.40741541, 2.181376476)",3,6441,6803,13244,"2.155754287","41.424212764",64,100
"188","2020/2021","2020","8015247","Escola Joventut","1","Public","1","Departament d'Ensenyament","1060","Catalunya Central","7","Bages","08038","80386","Callus","0","0","465339.36","4604147.615","Educacio infantil 2n cicle","1","1","FALSE",25,25,22,23,1,"(41.58827149, 2.584152616)",3,14,8,22,"1.783768285","41.781400133",88,100
"189","2020/2021","2020","8019198","Escola Pompeu Fabra","1","Public","1","Departament d'Ensenyament","208","Barcelona Comarques","13","Barcelones","08101","81017","L'Hospitalet de Llobregat","3","Santa Eulalia","425512.917","4578319.03","Educacio infantil 2n cicle","1","2","FALSE",50,50,49,50,1,"(41.35292779, 2.109557466)",3,1247,128,1375,"2.124116156","41.363365881",98,100
"190","2020/2021","2020","8003543","Salesia de Sant Josep","2","Privat","24","Ordes i Congregacions Catolics","108","Consorci d'Educacio de Barcelona","13","Barcelones","08019","80193","Barcelona","2","Eixample","429422.775","4580998.115","Educacio infantil 2n cicle","1","1","FALSE",25,25,25,25,0,"(41.37740959, 2.155980403)",3,6441,6803,13244,"2.155980403","41.377409585",100,100
"191","2020/2021","2020","8010468","Palcam","2","Privat","26","Societats Mercantils","108","Consorci d'Educacio de Barcelona","13","Barcelones","08019","80193","Barcelona","7","Horta - Guinardo","430361.954","4584130.97","Educacio infantil 2n cicle","1","4","FALSE",100,100,80,85,5,"(41.40570801, 2.166850517)",3,6441,6803,13244,"2.171459734","41.4109346",80,100
"192","2020/2021","2020","8019927","Escola Maria Cubi i Soler","1","Public","1","Departament d'Ensenyament","508","Maresme-Valles Oriental","21","Maresme","08110","81108","Malgrat de Mar","0","0","401836.82","4619591.868","Educacio infantil 2n cicle","1","2","FALSE",50,50,31,35,4,"(41.72207248, 1.819837763)",3,68,70,138,"2.743239168","41.653041763",62,100
"193","2020/2021","2020","8001820","Escola Mila i Fontanals","1","Public","1","Departament d'Ensenyament","108","Consorci d'Educacio de Barcelona","13","Barcelones","08019","80193","Barcelona","1","Ciutat vella","430460.925","4581518.501","Educacio infantil 2n cicle","1","2","FALSE",50,50,50,50,0,"(41.38218693, 2.168334465)",3,6441,6803,13244,"2.168334465","41.382186929",100,100
"194","2020/2021","2020","8022938","Escola Jacint Verdaguer","1","Public","1","Departament d'Ensenyament","308","Baix Llobregat","11","Baix Llobregat","08169","81691","El Prat de Llobregat","0","0","378730.385","4618065.641","Educacio infantil 2n cicle","1","2","FALSE",50,50,50,50,0,"(41.70514175, 1.542430658)",3,292,345,637,"2.097738633","41.324246823",100,100
"195","2020/2021","2020","8019678","Escola Guerau de Jorba","1","Public","1","Departament d'Ensenyament","1060","Catalunya Central","6","Anoia","08103","81038","Jorba","0","0","432925.459","4595799.785","Educacio infantil 2n cicle","1","1","FALSE",20,20,5,5,0,"(41.51102272, 2.19622072)",3,4,6,10,"1.54635368","41.60022813",25,100
"196","2020/2021","2020","8008267","L'Esperanca","2","Privat","22","Fundacions","108","Consorci d'Educacio de Barcelona","13","Barcelones","08019","80193","Barcelona","9","Sant Andreu","432465.356","4587038.303","Educacio infantil 2n cicle","1","1","FALSE",25,25,15,15,0,"(41.43207289, 2.191688541)",3,6441,6803,13244,"2.20114573","41.446756238",60,100
"197","2020/2021","2020","8023918","Escola Concordia","1","Public","1","Departament d'Ensenyament","408","Valles Occidental","40","Valles Occident","08187","81878","Sabadell","4","Sabadell 4","426840.851","4600093.016","Educacio infantil 2n cicle","1","2","FALSE",46,46,45,46,1,"(41.5491564, 2.122792236)",3,1004,116,1120,"2.089537508","41.561134819",97.8,100
"198","2020/2021","2020","8005618","Vedruna Angels Barcelona","2","Privat","22","Fundacions","108","Consorci d'Educacio de Barcelona","13","Barcelones","08019","80193","Barcelona","1","Ciutat vella","430487.23","4581655.943","Educacio infantil 2n cicle","1","1","FALSE",25,25,25,25,0,"(41.3834271, 2.168633261)",3,6441,6803,13244,"2.167808352","41.38300779",100,100
"199","2020/2021","2020","8021363","Escola L'Alzina","1","Public","1","Departament d'Ensenyament","308","Baix Llobregat","11","Baix Llobregat","08123","81234","Molins de Rei","0","0","434158.583","4598927.351","Educacio infantil 2n cicle","1","1","FALSE",25,25,23,24,1,"(41.53929365, 2.210654048)",3,113,140,253,"2.022360074","41.414432368",92,100
"200","2020/2021","2020","8023050","Nuestra Senora del Mar-Garcia Lorca","2","Privat","26","Societats Mercantils","308","Baix Llobregat","11","Baix Llobregat","08169","81691","El Prat de Llobregat","0","0","446334.501","4594092.483","Educacio infantil 2n cicle","1","1","FALSE",25,25,19,20,1,"(41.49665598, 2.357047473)",3,292,345,637,"2.095979441","41.327571235",76,100
"201","2020/2021","2020","8019940","Escola Puig-Agut","1","Public","1","Departament d'Ensenyament","1060","Catalunya Central","24","Osona","08112","81120","Manlleu","0","0","402018.36","4620141.32","Educacio infantil 2n cicle","1","2","FALSE",44,44,35,38,3,"(41.72704279, 1.82192949)",3,106,110,216,"2.284907533","42.005765278",79.5,100
"202","2020/2021","2020","8001297","Laietania","2","Privat","26","Societats Mercantils","208","Barcelona Comarques","13","Barcelones","08015","80155","Badalona","0","0","436415.972","4588518.35","Educacio infantil 2n cicle","1","1","FALSE",25,25,22,23,1,"(41.4457258, 2.238812969)",3,973,1077,2050,"2.238812969","41.445725798",88,100
"203","2020/2021","2020","8025083","Escola Pompeu Fabra","1","Public","1","Departament d'Ensenyament","208","Barcelona Comarques","13","Barcelones","08194","81944","Sant Adria de Besos","0","0","413916.429","4588912.034","Educacio infantil 2n cicle","1","2","FALSE",50,50,50,50,0,"(41.44717403, 1.969443181)",3,205,205,410,"2.221167694","41.430406286",100,100
"204","2020/2021","2020","8002587","Escola Concepcion Arenal","1","Public","1","Departament d'Ensenyament","108","Consorci d'Educacio de Barcelona","13","Barcelones","08019","80193","Barcelona","10","Sant Marti","434424.852","4585397.461","Educacio infantil 2n cicle","1","1","FALSE",22,22,22,22,0,"(41.41745666, 2.215317253)",3,6441,6803,13244,"2.215317253","41.417456663",100,100
"205","2020/2021","2020","8025551","Sant Josep","2","Privat","26","Societats Mercantils","308","Baix Llobregat","11","Baix Llobregat","08200","82009","Sant Boi de Llobregat","0","0","419454.471","4577221.787","Educacio infantil 2n cicle","1","2","FALSE",50,50,46,50,4,"(41.34246245, 2.037287893)",3,400,369,769,"2.015043575","41.347811394",92,100
"206","2020/2021","2020","8023554","Escola Josep Maria Ginesta","1","Public","1","Departament d'Ensenyament","408","Valles Occidental","40","Valles Occident","08180","81803","Ripollet","0","0","419503.42","4593592.27","Educacio infantil 2n cicle","1","2","FALSE",37,37,31,33,2,"(41.48990499, 2.035694472)",3,179,215,394,"2.15355163","41.501836768",83.8,100
"207","2020/2021","2020","8003671","JesuItes Poble Sec - Sant Pere Claver","2","Privat","22","Fundacions","108","Consorci d'Educacio de Barcelona","13","Barcelones","08019","80193","Barcelona","3","Sants - Montjuic","430937.265","4586440.299","Educacio infantil 2n cicle","1","1","FALSE",25,25,22,23,1,"(41.42655695, 2.173469187)",3,6441,6803,13244,"2.173469187","41.426556945",88,100
"208","2020/2021","2020","8008462","Jesus, Maria i Josep","2","Privat","24","Ordes i Congregacions Catolics","108","Consorci d'Educacio de Barcelona","13","Barcelones","08019","80193","Barcelona","9","Sant Andreu","431500.416","4588173.354","Educacio infantil 2n cicle","1","3","FALSE",75,75,73,75,2,"(41.44221416, 2.180011788)",3,6441,6803,13244,"2.191468472","41.428564805",97.3,100
"209","2020/2021","2020","8025599","Escola Marianao","1","Public","1","Departament d'Ensenyament","308","Baix Llobregat","11","Baix Llobregat","08200","82009","Sant Boi de Llobregat","0","0","457351.604","4615308.19","Educacio infantil 2n cicle","1","2","FALSE",50,50,32,44,12,"(41.68840685, 2.487525647)",3,400,369,769,"2.024800724","41.350156728",64,100
"210","2020/2021","2020","8009971","Guinardo","2","Privat","21","Cooperatives","108","Consorci d'Educacio de Barcelona","13","Barcelones","08019","80193","Barcelona","7","Horta - Guinardo","429696.372","4587345.074","Educacio infantil 2n cicle","1","2","FALSE",50,50,43,50,7,"(41.43459825, 2.15851469)",3,6441,6803,13244,"2.179475714","41.419922083",86,100
"211","2020/2021","2020","8023751","Ribas","2","Privat","22","Fundacions","408","Valles Occidental","40","Valles Occident","08184","81846","Rubi","0","0","425673.875","4599611.777","Educacio infantil 2n cicle","1","1","FALSE",25,25,25,25,0,"(41.54471463, 2.108860855)",3,389,392,781,"2.03564546","41.488427129",100,100
"212","2020/2021","2020","8010501","Claret","2","Privat","24","Ordes i Congregacions Catolics","108","Consorci d'Educacio de Barcelona","13","Barcelones","08019","80193","Barcelona","6","Gracia","429060.51","4585745.017","Educacio infantil 2n cicle","1","4","FALSE",100,100,77,79,2,"(41.42013129, 2.151092421)",3,6441,6803,13244,"2.166850517","41.405708008",77,100
"213","2020/2021","2020","8020218","La Salle","2","Privat","24","Ordes i Congregacions Catolics","1060","Catalunya Central","7","Bages","08113","81136","Manresa","0","0","402484.644","4621183.016","Educacio infantil 2n cicle","1","1","FALSE",23,23,18,22,4,"(41.7364808, 1.827364039)",3,359,387,746,"1.837865","41.741968",78.3,100
"214","2020/2021","2020","8022070","Escola Marinada","1","Public","1","Departament d'Ensenyament","508","Maresme-Valles Oriental","41","Valles Oriental","08136","81363","Montornes del Valles","0","0","407181.373","4639268.416","Educacio infantil 2n cicle","1","2","FALSE",50,50,34,35,1,"(41.89990657, 1.881000351)",3,91,78,169,"2.265903541","41.545889845",68,100
"215","2020/2021","2020","8020607","Escola Juan Ramon Jimenez","1","Public","1","Departament d'Ensenyament","308","Baix Llobregat","11","Baix Llobregat","08114","81141","Martorell","0","0","442924.993","4592273.69","Educacio infantil 2n cicle","1","2","FALSE",50,50,41,50,9,"(41.48003883, 2.316373977)",3,130,160,290,"1.920732719","41.472148521",82,100
"216","2020/2021","2020","8023979","Escola Joan Montllor","1","Public","1","Departament d'Ensenyament","408","Valles Occidental","40","Valles Occident","08187","81878","Sabadell","7","Sabadell 7","427002.713","4597685.156","Educacio infantil 2n cicle","1","1","FALSE",22,22,11,11,0,"(41.52748517, 2.125025168)",3,1004,116,1120,"2.122792236","41.549156398",50,100
"217","2020/2021","2020","8026464","Escola Monsenyor Gibert","1","Public","1","Departament d'Ensenyament","1060","Catalunya Central","7","Bages","08213","82135","Sant Fruitos de Bages","0","0","421067.441","4580484.858","Educacio infantil 2n cicle","1","2","FALSE",50,50,42,42,0,"(41.37201078, 2.056139709)",3,45,30,75,"1.876385681","41.753046879",84,100
"218","2020/2021","2020","8024972","Escola Torres Amat","1","Public","1","Departament d'Ensenyament","1060","Catalunya Central","7","Bages","08191","81918","Sallent","0","0","434926.702","4586830.702","Educacio infantil 2n cicle","1","2","FALSE",50,50,32,32,0,"(41.43040629, 2.221167694)",3,31,25,56,"1.898260495","41.822545888",64,100
"219","2020/2021","2020","8021983","Escola Gira-sol - ZER Baix Bergueda","1","Public","1","Departament d'Ensenyament","1060","Catalunya Central","14","Bergueda","08132","81326","Montmajor","0","0","438773.343","4599619.037","Educacio infantil 2n cicle","1","0","FALSE",10,10,3,3,0,"(41.54588985, 2.265903541)",3,2,6,8,"1.737688972","42.018546316",30,100
"220","2020/2021","2020","8020701","Escola Comtes de Lacambra","1","Public","1","Departament d'Ensenyament","1060","Catalunya Central","24","Osona","08117","81173","Les Masies de Voltrega","0","0","441877.113","4592243.091","Educacio infantil 2n cicle","1","1","FALSE",25,25,7,8,1,"(41.47968795, 2.303826645)",3,11,12,23,"2.231374201","42.042034805",28,100
"221","2020/2021","2020","8026208","Escola Jaume Balmes","1","Public","1","Departament d'Ensenyament","508","Maresme-Valles Oriental","41","Valles Oriental","08210","82107","Sant Feliu de Codines","0","0","420389.897","4581445.072","Educacio infantil 2n cicle","1","2","FALSE",50,50,40,42,2,"(41.38059213, 2.04791272)",3,27,28,55,"2.165989104","41.693414583",80,100
"222","2020/2021","2020","8000943","Garbi Pere Verges","2","Privat","22","Fundacions","208","Barcelona Comarques","13","Barcelones","08015","80155","Badalona","0","0","437553.269","4591861.493","Educacio infantil 2n cicle","1","2","FALSE",50,50,48,50,2,"(41.47592592, 2.252080927)",3,973,1077,2050,"2.252080927","41.475925915",96,100
"223","2020/2021","2020","8026919","Escola Josep Gras","1","Public","1","Departament d'Ensenyament","408","Valles Occidental","40","Valles Occident","08223","82233","Sant Llorenc Savall","0","0","391651.583","4589933.244","Educacio infantil 2n cicle","1","1","FALSE",25,25,18,18,0,"(41.45367405, 1.702773315)",3,10,7,17,"2.060659723","41.67976607",72,94.4
"224","2020/2021","2020","8023724","Maristes Rubi","2","Privat","22","Fundacions","408","Valles Occidental","40","Valles Occident","08184","81846","Rubi","0","0","415926.425","4597787.493","Educacio infantil 2n cicle","1","3","FALSE",75,75,58,71,13,"(41.52732016, 1.992264459)",3,389,392,781,"2.035694472","41.489904988",77.3,100
"225","2020/2021","2020","8018455","Sanfeliu","2","Privat","41","Persones Fisiques","208","Barcelona Comarques","13","Barcelones","08101","81017","L'Hospitalet de Llobregat","1","Centre - Sant Josep - Santfeliu","425824.331","4579957.052","Educacio infantil 2n cicle","1","1","FALSE",25,25,20,20,0,"(41.36770953, 2.113079492)",3,1247,128,1375,"2.088669698","41.366420598",80,100
"226","2020/2021","2020","8009156","Sagrado Corazon","2","Privat","24","Ordes i Congregacions Catolics","108","Consorci d'Educacio de Barcelona","13","Barcelones","08019","80193","Barcelona","2","Eixample","432532.376","4584414.394","Educacio infantil 2n cicle","1","1","FALSE",25,25,9,9,0,"(41.40844581, 2.192783328)",3,6441,6803,13244,"2.183914126","41.399651908",36,100
"227","2020/2021","2020","8003087","Sant Joan Baptista","2","Privat","22","Fundacions","108","Consorci d'Educacio de Barcelona","13","Barcelones","08019","80193","Barcelona","1","Ciutat vella","432199.511","4581527.268","Educacio infantil 2n cicle","1","1","FALSE",25,25,10,10,0,"(41.38241429, 2.189124406)",3,6441,6803,13244,"2.189124406","41.382414286",40,100
"228","2020/2021","2020","8026282","Mestral","2","Privat","21","Cooperatives","308","Baix Llobregat","11","Baix Llobregat","08211","82114","Sant Feliu de Llobregat","0","0","405977.645","4623154.829","Educacio infantil 2n cicle","1","1","FALSE",25,25,25,25,0,"(41.75465854, 1.86904823)",3,189,226,415,"2.049649866","41.393371387",100,100
"229","2020/2021","2020","8001030","Cultural Fluvia","2","Privat","26","Societats Mercantils","208","Barcelona Comarques","13","Barcelones","08015","80155","Badalona","0","0","437164.1","4589411.232","Educacio infantil 2n cicle","1","1","FALSE",25,25,18,20,2,"(41.45382667, 2.247675422)",3,973,1077,2050,"2.247675422","41.453826672",72,100
"230","2020/2021","2020","8022598","Escola Les Ferreries de Palafolls","1","Public","1","Departament d'Ensenyament","508","Maresme-Valles Oriental","21","Maresme","08155","81555","Palafolls","0","0","417833.83","4587841.178","Educacio infantil 2n cicle","1","2","FALSE",46,46,41,46,5,"(41.43794021, 2.016479536)",3,42,50,92,"2.746504196","41.667662782",89.1,100
"231","2020/2021","2020","8016689","Santa Eulalia","2","Privat","26","Societats Mercantils","308","Baix Llobregat","11","Baix Llobregat","08073","80734","Cornella de Llobregat","0","0","388935.878","4563046.121","Educacio infantil 2n cicle","1","1","FALSE",25,25,24,25,1,"(41.21117635, 1.675182591)",3,383,418,801,"2.076503104","41.360233631",96,100
"232","2020/2021","2020","8015144","Escola El Far","1","Public","1","Departament d'Ensenyament","508","Maresme-Valles Oriental","21","Maresme","08035","80351","Calella","0","0","440875.182","4641574.731","Educacio infantil 2n cicle","1","2","FALSE",50,49,49,49,0,"(41.92391729, 2.286934872)",3,74,83,157,"2.653906","41.619583",98,100
"233","2020/2021","2020","8019265","Escola Joaquim Ruyra","1","Public","1","Departament d'Ensenyament","208","Barcelona Comarques","13","Barcelones","08101","81017","L'Hospitalet de Llobregat","4","La Florida","424846.9","4579838.532","Educacio infantil 2n cicle","1","2","FALSE",44,44,42,45,3,"(41.3665514, 2.101408388)",3,1247,128,1375,"2.110404164","41.367133675",95.5,100
"234","2020/2021","2020","8006118","Proa","2","Privat","31","Associacions","108","Consorci d'Educacio de Barcelona","13","Barcelones","08019","80193","Barcelona","3","Sants - Montjuic","427181.482","4580747.545","Educacio infantil 2n cicle","1","2","FALSE",50,50,47,50,3,"(41.37495311, 2.129210228)",3,6441,6803,13244,"2.139513139","41.371263756",94,100
"235","2020/2021","2020","8021119","Cor de Maria","2","Privat","22","Fundacions","508","Maresme-Valles Oriental","21","Maresme","08121","81213","Mataro","0","0","453212.405","4598192.381","Educacio infantil 2n cicle","1","2","FALSE",48,48,31,45,14,"(41.53401486, 2.439127096)",3,605,648,1253,"2.44461204","41.540161463",64.6,100
"236","2020/2021","2020","8003361","Maristes Anna Ravell","2","Privat","22","Fundacions","108","Consorci d'Educacio de Barcelona","13","Barcelones","08019","80193","Barcelona","3","Sants - Montjuic","429934.534","4580389.896","Educacio infantil 2n cicle","1","2","FALSE",50,50,18,23,5,"(41.37197627, 2.162170104)",3,6441,6803,13244,"2.162170104","41.371976271",36,100
"237","2020/2021","2020","8001923","Escola Diputacio","1","Public","1","Departament d'Ensenyament","108","Consorci d'Educacio de Barcelona","13","Barcelones","08019","80193","Barcelona","2","Eixample","429403.608","4581476.939","Educacio infantil 2n cicle","1","2","FALSE",52,52,40,52,12,"(41.38172051, 2.15569543)",3,6441,6803,13244,"2.15569543","41.38172051",76.9,100
"238","2020/2021","2020","8008279","FEDAC-Sant Andreu","2","Privat","22","Fundacions","108","Consorci d'Educacio de Barcelona","13","Barcelones","08019","80193","Barcelona","9","Sant Andreu","431058.185","4590142.672","Educacio infantil 2n cicle","1","2","FALSE",50,50,38,47,9,"(41.45991316, 2.174493665)",3,6441,6803,13244,"2.191688541","41.432072894",76,100
"239","2020/2021","2020","8014747","Escola El Turo","1","Public","1","Departament d'Ensenyament","508","Maresme-Valles Oriental","41","Valles Oriental","08023","80235","Bigues i Riells","0","0","398236.035","4604135.798","Educacio infantil 2n cicle","1","1","FALSE",25,25,16,25,9,"(41.58243535, 1.779188013)",3,36,43,79,"2.21362033","41.675615061",64,100
"240","2020/2021","2020","8020917","Escola Josep Manuel Peramas","1","Public","1","Departament d'Ensenyament","508","Maresme-Valles Oriental","21","Maresme","08121","81213","Mataro","0","0","452353.844","4598655.278","Educacio infantil 2n cicle","1","2","FALSE",44,44,25,28,3,"(41.53813349, 2.42879878)",3,605,648,1253,"2.42909924","41.537990356",56.8,100
"241","2020/2021","2020","8015651","Escola Princesa Lascaris","1","Public","1","Departament d'Ensenyament","1060","Catalunya Central","14","Bergueda","08049","80497","Casserres","0","0","404530.177","4609642.89","Educacio infantil 2n cicle","1","1","FALSE",20,20,13,13,0,"(41.63280625, 1.853803159)",3,15,6,21,"1.84282777","42.012687067",65,100
"242","2020/2021","2020","8015843","Escola Lluis Vives","1","Public","1","Departament d'Ensenyament","308","Baix Llobregat","11","Baix Llobregat","08056","80569","Castelldefels","0","0","413537.099","4570473.653","Educacio infantil 2n cicle","1","2","FALSE",50,50,33,43,10,"(41.28107355, 1.967531198)",3,304,318,622,"1.976147284","41.275826394",66,100
"243","2020/2021","2020","8008796","Verns","2","Privat","21","Cooperatives","108","Consorci d'Educacio de Barcelona","13","Barcelones","08019","80193","Barcelona","10","Sant Marti","433898.344","4584928.556","Educacio infantil 2n cicle","1","1","FALSE",25,25,22,25,3,"(41.41319022, 2.209068779)",3,6441,6803,13244,"2.200882618","41.419848104",88,100
"244","2020/2021","2020","8021144","Maristes Valldemia","2","Privat","22","Fundacions","508","Maresme-Valles Oriental","21","Maresme","08121","81213","Mataro","0","0","452345.605","4598862.717","Educacio infantil 2n cicle","1","3","FALSE",72,72,46,58,12,"(41.54000139, 2.428683566)",3,605,648,1253,"2.442612319","41.544034061",63.9,100
"245","2020/2021","2020","8021442","Escola Castell Ciuro","1","Public","1","Departament d'Ensenyament","308","Baix Llobregat","11","Baix Llobregat","08123","81234","Molins de Rei","0","0","434388.041","4598557.3","Educacio infantil 2n cicle","1","2","FALSE",30,30,30,30,0,"(41.53597961, 2.213445061)",3,113,140,253,"2.02589547","41.411069435",100,100
"246","2020/2021","2020","8022045","Escola Sant Jordi","1","Public","1","Departament d'Ensenyament","508","Maresme-Valles Oriental","41","Valles Oriental","08135","81350","Montmelo","0","0","424924.993","4629495.79","Educacio infantil 2n cicle","1","2","FALSE",50,50,49,49,0,"(41.81378174, 2.096124693)",3,33,37,70,"2.244759067","41.552796676",98,100
"247","2020/2021","2020","8001595","Escola Baixeras","1","Public","1","Departament d'Ensenyament","108","Consorci d'Educacio de Barcelona","13","Barcelones","08019","80193","Barcelona","1","Ciutat vella","431418.712","4581581.65","Educacio infantil 2n cicle","1","1","FALSE",25,25,10,18,8,"(41.38283791, 2.179781021)",3,6441,6803,13244,"2.179781021","41.382837911",40,100
"248","2020/2021","2020","8021351","Escola El Palau","1","Public","1","Departament d'Ensenyament","308","Baix Llobregat","11","Baix Llobregat","08123","81234","Molins de Rei","0","0","418586.914","4584849.097","Educacio infantil 2n cicle","1","1","FALSE",25,25,11,11,0,"(41.41106944, 2.02589547)",3,113,140,253,"2.016212556","41.411730401",44,100
"249","2020/2021","2020","8017335","Sant Lluis Goncaga","2","Privat","22","Fundacions","508","Maresme-Valles Oriental","41","Valles Oriental","08088","80885","La Garriga","0","0","416246.868","4569508.032","Educacio infantil 2n cicle","1","1","FALSE",25,25,24,24,0,"(41.27266238, 2.00001698)",3,72,71,143,"2.28982331","41.679402316",96,100
"250","2020/2021","2020","8002538","Escola Victor Catala","1","Public","1","Departament d'Ensenyament","108","Consorci d'Educacio de Barcelona","13","Barcelones","08019","80193","Barcelona","8","Nou Barris","426533.061","4583149.462","Educacio infantil 2n cicle","1","2","FALSE",50,50,49,50,1,"(41.39652721, 2.12116579)",3,6441,6803,13244,"2.12116579","41.39652721",98,100
"251","2020/2021","2020","8025824","Escola La Floresta","1","Public","1","Departament d'Ensenyament","408","Valles Occidental","40","Valles Occident","08205","82055","Sant Cugat del Valles","0","0","422720.607","4594212.812","Educacio infantil 2n cicle","1","1","FALSE",25,25,25,25,0,"(41.49581042, 2.074150127)",3,517,508,1025,"2.067309365","41.448775563",100,100
"252","2020/2021","2020","8009636","Sant Miquel","2","Privat","24","Ordes i Congregacions Catolics","108","Consorci d'Educacio de Barcelona","13","Barcelones","08019","80193","Barcelona","2","Eixample","427941.36","4582266.166","Educacio infantil 2n cicle","1","3","FALSE",75,75,61,64,3,"(41.38869914, 2.138115552)",3,6441,6803,13244,"2.154170531","41.391055801",81.3,100
"253","2020/2021","2020","8024066","Escola Tarlatana","1","Public","1","Departament d'Ensenyament","408","Valles Occidental","40","Valles Occident","08187","81878","Sabadell","2","Sabadell 2","424611.989","4599615.162","Educacio infantil 2n cicle","1","1","FALSE",22,22,11,13,2,"(41.54464576, 2.096130376)",3,1004,116,1120,"2.103590815","41.562776787",50,100
"254","2020/2021","2020","8026041","Viaro","2","Privat","26","Societats Mercantils","408","Valles Occidental","40","Valles Occident","08205","82055","Sant Cugat del Valles","0","0","405877.651","4594381.753","Educacio infantil 2n cicle","1","2","FALSE",50,50,29,29,0,"(41.49553069, 1.872369987)",3,517,508,1025,"2.077427823","41.487043343",58,100
"255","2020/2021","2020","8012027","Frederic Mistral-Tecnic Eulalia","2","Privat","22","Fundacions","108","Consorci d'Educacio de Barcelona","13","Barcelones","08019","80193","Barcelona","5","Sarria - Sant Gervasi","428886.302","4586613.794","Educacio infantil 2n cicle","1","6","FALSE",150,150,130,134,4,"(41.4279406, 2.148905778)",3,6441,6803,13244,"2.132976757","41.415784249",86.7,100
"256","2020/2021","2020","8015961","Escola Jacint Verdaguer","1","Public","1","Departament d'Ensenyament","308","Baix Llobregat","11","Baix Llobregat","08056","80569","Castelldefels","0","0","370198.067","4626079.466","Educacio infantil 2n cicle","1","1","FALSE",25,25,26,26,0,"(41.77594978, 1.438166274)",3,304,318,622,"1.979443076","41.285049195",104,100
"257","2020/2021","2020","8008701","Grey","2","Privat","26","Societats Mercantils","108","Consorci d'Educacio de Barcelona","13","Barcelones","08019","80193","Barcelona","8","Nou Barris","431341.453","4582769.851","Educacio infantil 2n cicle","1","1","FALSE",25,25,17,20,3,"(41.39353309, 2.178722438)",3,6441,6803,13244,"2.172182668","41.438448523",68,100
"258","2020/2021","2020","8016291","Escola Copons - ZER Vent d'Avall","1","Public","1","Departament d'Ensenyament","1060","Catalunya Central","6","Anoia","08071","80713","Copons","0","0","423148.623","4579851.468","Educacio infantil 2n cicle","1","0","FALSE",7,7,7,7,0,"(41.36650757, 2.081103236)",3,1,1,2,"1.518367982","41.636709335",100,28.6
"259","2020/2021","2020","8026567","Escola Sant Francesc d'Assis","1","Public","1","Departament d'Ensenyament","308","Baix Llobregat","11","Baix Llobregat","08217","82172","Sant Joan Despi","0","0","449121.812","4595068.565","Educacio infantil 2n cicle","1","2","FALSE",50,50,37,37,0,"(41.50562931, 2.39035722)",3,161,165,326,"2.053473909","41.368689785",74,100
"260","2020/2021","2020","8017840","Educem","2","Privat","26","Societats Mercantils","508","Maresme-Valles Oriental","41","Valles Oriental","08096","80961","Granollers","0","0","397409.462","4614564.584","Educacio infantil 2n cicle","1","1","FALSE",25,25,11,13,2,"(41.67624259, 1.767486503)",3,297,317,614,"2.289707737","41.611316393",44,100
"261","2020/2021","2020","8024406","Estel","2","Privat","26","Societats Mercantils","408","Valles Occidental","40","Valles Occident","08187","81878","Sabadell","1","Sabadell 1","426214.316","4597984.887","Educacio infantil 2n cicle","1","1","FALSE",25,25,23,23,0,"(41.53011237, 2.115539428)",3,1004,116,1120,"2.106648568","41.550032074",92,100
"262","2020/2021","2020","8018972","Utmar","2","Privat","26","Societats Mercantils","208","Barcelona Comarques","13","Barcelones","08101","81017","L'Hospitalet de Llobregat","5","Pubilla Casas","426742.495","4579465.444","Educacio infantil 2n cicle","1","1","FALSE",25,25,21,23,2,"(41.36336588, 2.124116156)",3,1247,128,1375,"2.100711913","41.371437856",84,100
"263","2020/2021","2020","8017049","Utmar","2","Privat","26","Societats Mercantils","308","Baix Llobregat","11","Baix Llobregat","08077","80771","Esplugues de Llobregat","0","0","424463.895","4581219.417","Educacio infantil 2n cicle","1","1","FALSE",25,25,25,25,0,"(41.37895255, 2.096657357)",3,254,199,453,"2.097165181","41.371910426",100,100
"264","2020/2021","2020","8022719","Nostra Senyora de Montserrat","2","Privat","22","Fundacions","508","Maresme-Valles Oriental","41","Valles Oriental","08159","81593","Parets del Valles","0","0","472930.707","4607484.025","Educacio infantil 2n cicle","1","2","FALSE",50,50,27,27,0,"(41.61861636, 2.675078866)",3,102,111,213,"2.235116619","41.578375062",54,100
"265","2020/2021","2020","8018777","Balaguer","2","Privat","26","Societats Mercantils","208","Barcelona Comarques","13","Barcelones","08101","81017","L'Hospitalet de Llobregat","4","La Florida","426676.818","4580275.017","Educacio infantil 2n cicle","1","1","FALSE",25,25,22,23,1,"(41.37065142, 2.123233109)",3,1247,128,1375,"2.113079492","41.367709527",88,100
"266","2020/2021","2020","8020127","Escola Bages","1","Public","1","Departament d'Ensenyament","1060","Catalunya Central","7","Bages","08113","81136","Manresa","0","0","403836.214","4620736.363","Educacio infantil 2n cicle","1","2","FALSE",43,43,43,43,0,"(41.73262329, 1.843685801)",3,359,387,746,"1.830198289","41.732018094",100,100
"267","2020/2021","2020","8001650","Escola El Polvori","1","Public","1","Departament d'Ensenyament","108","Consorci d'Educacio de Barcelona","13","Barcelones","08019","80193","Barcelona","3","Sants - Montjuic","428312.092","4579480.531","Educacio infantil 2n cicle","1","1","FALSE",22,22,9,9,0,"(41.36364306, 2.1428788)",3,6441,6803,13244,"2.1428788","41.36364306",40.9,100
"268","2020/2021","2020","8025812","Escola Sant Climent","1","Public","1","Departament d'Ensenyament","308","Baix Llobregat","11","Baix Llobregat","08204","82042","Sant Climent de Llobregat","0","0","422879.955","4592573.726","Educacio infantil 2n cicle","1","2","FALSE",50,50,46,46,0,"(41.48106367, 2.076268681)",3,24,19,43,"1.995146935","41.341222965",92,93.5
"269","2020/2021","2020","8005199","Jesuites Casp - Sagrat Cor de Jesus","2","Privat","22","Fundacions","108","Consorci d'Educacio de Barcelona","13","Barcelones","08019","80193","Barcelona","2","Eixample","430723.287","4582383.514","Educacio infantil 2n cicle","1","2","FALSE",50,50,50,50,0,"(41.39000046, 2.171373009)",3,6441,6803,13244,"2.171373009","41.390000464",100,100
"270","2020/2021","2020","8002800","Escola Mas Casanovas","1","Public","1","Departament d'Ensenyament","108","Consorci d'Educacio de Barcelona","13","Barcelones","08019","80193","Barcelona","7","Horta - Guinardo","430692.015","4584957.853","Educacio infantil 2n cicle","1","1","FALSE",25,25,21,24,3,"(41.41318398, 2.170704259)",3,6441,6803,13244,"2.170704259","41.413183978",84,100
"271","2020/2021","2020","8023335","Escola Montserrat","1","Public","1","Departament d'Ensenyament","508","Maresme-Valles Oriental","21","Maresme","08172","81727","Premia de Mar","0","0","429391.684","4594352.225","Educacio infantil 2n cicle","1","2","FALSE",50,50,35,36,1,"(41.49768159, 2.154048214)",3,136,144,280,"2.350839083","41.492624859",70,100
"272","2020/2021","2020","8015454","Escola Ramon Macip - Dolors Granes","1","Public","1","Departament d'Ensenyament","508","Maresme-Valles Oriental","41","Valles Oriental","08046","80462","Cardedeu","0","0","391872.601","4640484.464","Educacio infantil 2n cicle","1","1","FALSE",25,25,25,25,0,"(41.90890996, 1.696261453)",3,110,101,211,"2.359488684","41.641693967",100,100
"273","2020/2021","2020","8015193","Escola Sant Marc","1","Public","1","Departament d'Ensenyament","1060","Catalunya Central","24","Osona","08037","80370","Calldetenes","0","0","455640.276","4619508.951","Educacio infantil 2n cicle","1","1","FALSE",25,25,25,25,0,"(41.72614847, 2.466650101)",3,12,8,20,"2.286934872","41.923917292",100,80
"274","2020/2021","2020","8022732","Acesco","2","Privat","41","Persones Fisiques","508","Maresme-Valles Oriental","41","Valles Oriental","08159","81593","Parets del Valles","0","0","474088.672","4608708.009","Educacio infantil 2n cicle","1","1","FALSE",25,25,23,23,0,"(41.62967939, 2.6889251)",3,102,111,213,"2.226521054","41.56462107",92,100
"275","2020/2021","2020","8010912","Escola Ignasi Iglesias","1","Public","4","Corporacions Locals","108","Consorci d'Educacio de Barcelona","13","Barcelones","08019","80193","Barcelona","9","Sant Andreu","432212.019","4581518.326","Educacio infantil 2n cicle","1","2","FALSE",50,50,31,46,15,"(41.3823348, 2.189274985)",3,6441,6803,13244,"2.191064323","41.441330487",62,100
"276","2020/2021","2020","8006477","Lloret","2","Privat","26","Societats Mercantils","108","Consorci d'Educacio de Barcelona","13","Barcelones","08019","80193","Barcelona","3","Sants - Montjuic","427897.923","4580688.199","Educacio infantil 2n cicle","1","1","FALSE",25,25,17,20,3,"(41.3744831, 2.137783815)",3,6441,6803,13244,"2.135662997","41.375293005",68,100
"277","2020/2021","2020","8000578","Nen Jesus de Praga","2","Privat","26","Societats Mercantils","208","Barcelona Comarques","13","Barcelones","08015","80155","Badalona","0","0","436906.025","4589170.597","Educacio infantil 2n cicle","1","1","FALSE",22,22,19,20,1,"(41.45163909, 2.244610924)",3,973,1077,2050,"2.244610924","41.45163909",86.4,100
"278","2020/2021","2020","8015879","Sant Ferran","2","Privat","26","Societats Mercantils","308","Baix Llobregat","11","Baix Llobregat","08056","80569","Castelldefels","0","0","383153.669","4573882.747","Educacio infantil 2n cicle","1","1","FALSE",25,25,19,21,2,"(41.30794784, 1.604152592)",3,304,318,622,"1.971542341","41.278115756",76,100
